{"estaciones":[
{"nom": "MONTE GRANDE", "cate": "CO", "lat": -7.22499, "lon": -79.15323, "ico": "M", "cod": "100090","cod_old": "000396", "estado": "DIFERIDO"},
{"nom": "QUEROCOTILLO", "cate": "PLU", "lat": -6.27366, "lon": -79.03696, "ico": "M", "cod": "106067","cod_old": "153109", "estado": "DIFERIDO"},
{"nom": "PUENTE  MAYGASBAMBA", "cate": "HLG", "lat": -6.67411, "lon": -78.52437, "ico": "H", "cod": "221110","cod_old": "220307", "estado": "DIFERIDO"},
{"nom": "QUEBRADA SHUGAR", "cate": "PLU", "lat": -6.68778, "lon": -78.45694, "ico": "M", "cod": "100113","cod_old": "153108", "estado": "DIFERIDO"},
{"nom": "CHUGUR", "cate": "PLU", "lat": -6.67091, "lon": -78.73717, "ico": "M", "cod": "106077","cod_old": "153208", "estado": "DIFERIDO"},
{"nom": "LA CASCARILLA", "cate": "CO", "lat": -5.67175, "lon": -78.89767, "ico": "M", "cod": "105062","cod_old": "000349", "estado": "DIFERIDO"},
{"nom": "CHONTALI", "cate": "CO", "lat": -5.64389, "lon": -79.09, "ico": "M", "cod": "105065","cod_old": "000250", "estado": "DIFERIDO"},
{"nom": "PUENTE CHUNCHUCA", "cate": "PLU", "lat": -5.94222, "lon": -78.85639, "ico": "M", "cod": "105110","cod_old": "152213", "estado": "DIFERIDO"},
{"nom": "CACAO", "cate": "HLM", "lat": -5.91694, "lon": -78.95028, "ico": "H", "cod": "220405","cod_old": "220405", "estado": "DIFERIDO"},
{"nom": "EL LIMON", "cate": "CO", "lat": -5.91778, "lon": -79.31722, "ico": "M", "cod": "105057","cod_old": "000241", "estado": "DIFERIDO"},
{"nom": "HACIENDA PUCARA", "cate": "PLU", "lat": -6.04167, "lon": -79.13389, "ico": "M", "cod": "106065","cod_old": "153107", "estado": "DIFERIDO"},
{"nom": "SALLIQUE", "cate": "CO", "lat": -5.65889, "lon": -79.3125, "ico": "M", "cod": "105053","cod_old": "002129", "estado": "DIFERIDO"},
{"nom": "COCHALAN", "cate": "PLU", "lat": -5.46639, "lon": -78.98861, "ico": "M", "cod": "105111","cod_old": "152212", "estado": "DIFERIDO"},
{"nom": "COCHALAN", "cate": "HLG", "lat": -5.46506, "lon": -78.98822, "ico": "H", "cod": "220814","cod_old": "220815", "estado": "DIFERIDO"},
{"nom": "TABACONAS", "cate": "HLG", "lat": -5.32221, "lon": -79.28779, "ico": "H", "cod": "220812","cod_old": "220813", "estado": "DIFERIDO"},
{"nom": "LIVES", "cate": "PLU", "lat": -7.0802, "lon": -79.04045, "ico": "M", "cod": "107055","cod_old": "153111", "estado": "DIFERIDO"},
{"nom": "CHANCAY BAÑOS", "cate": "CO", "lat": -6.575, "lon": -78.86722, "ico": "M", "cod": "106022","cod_old": "000395", "estado": "DIFERIDO"},
{"nom": "CIRATO", "cate": "HLG", "lat": -6.65579, "lon": -79.07395, "ico": "H", "cod": "106122","cod_old": "200909", "estado": "DIFERIDO"},
{"nom": "SALCCA", "cate": "PE", "lat": -14.16997, "lon": -71.23187, "ico": "M", "cod": "114131","cod_old": "114131", "estado": "DIFERIDO"},
{"nom": "YAURI", "cate": "CO", "lat": -14.81694, "lon": -71.41694, "ico": "M", "cod": "114032","cod_old": "000757", "estado": "DIFERIDO"},
{"nom": "CHACLLABAMBA", "cate": "CO", "lat": -13.10855, "lon": -71.72, "ico": "M", "cod": "113139","cod_old": "155518", "estado": "DIFERIDO"},
{"nom": "CHONTACHACA", "cate": "CO", "lat": -13.02389, "lon": -71.46778, "ico": "M", "cod": "100030","cod_old": "006671", "estado": "DIFERIDO"},
{"nom": "HUANCALPI", "cate": "CO", "lat": -12.53944, "lon": -75.23667, "ico": "M", "cod": "112142","cod_old": "156126", "estado": "DIFERIDO"},
{"nom": "HUACHOS", "cate": "CO", "lat": -13.2206, "lon": -75.53348, "ico": "M", "cod": "113067","cod_old": "151503", "estado": "DIFERIDO"},
{"nom": "SAN JUAN DE CASTROVIRREYNA", "cate": "CO", "lat": -13.21198, "lon": -75.62758, "ico": "M", "cod": "113082","cod_old": "156114", "estado": "DIFERIDO"},
{"nom": "CHOCLOCOCHA", "cate": "CO", "lat": -13.1588, "lon": -75.07145, "ico": "M", "cod": "113091","cod_old": "156130", "estado": "DIFERIDO"},
{"nom": "PAUCARBAMBA", "cate": "CO", "lat": -12.46667, "lon": -74.56667, "ico": "M", "cod": "112066","cod_old": "000658", "estado": "DIFERIDO"},
{"nom": "CORDOVA", "cate": "PLU", "lat": -14.04061, "lon": -75.18698, "ico": "M", "cod": "114065","cod_old": "157101", "estado": "DIFERIDO"},
{"nom": "TUNEL CERO", "cate": "CO", "lat": -13.25932, "lon": -75.08596, "ico": "M", "cod": "113016","cod_old": "000647", "estado": "DIFERIDO"},
{"nom": "CUSICANCHA", "cate": "CO", "lat": -13.50399, "lon": -75.29625, "ico": "M", "cod": "113086","cod_old": "156121", "estado": "DIFERIDO"},
{"nom": "CHALLACA PLU", "cate": "PLU", "lat": -13.79194, "lon": -75.39056, "ico": "M", "cod": "100025","cod_old": "000009", "estado": "DIFERIDO"},
{"nom": "CHALLACA CO", "cate": "CO", "lat": -13.79047, "lon": -75.38212, "ico": "M", "cod": "113128","cod_old": "006640", "estado": "DIFERIDO"},
{"nom": "SANTIAGO DE CHOCORVOS", "cate": "CO", "lat": -13.83308, "lon": -75.25083, "ico": "M", "cod": "113088","cod_old": "156123", "estado": "DIFERIDO"},
{"nom": "TAMBO", "cate": "CO", "lat": -13.69163, "lon": -75.27418, "ico": "M", "cod": "113087","cod_old": "156122", "estado": "DIFERIDO"},
{"nom": "CHINCHAVITO", "cate": "HLM", "lat": -9.515, "lon": -75.9425, "ico": "H", "cod": "230003","cod_old": "230003", "estado": "DIFERIDO"},
{"nom": "CARPISH", "cate": "CO", "lat": -9.66694, "lon": -76.08361, "ico": "M", "cod": "109020","cod_old": "000454", "estado": "DIFERIDO"},
{"nom": "TARUCA", "cate": "HLM", "lat": -9.84694, "lon": -76.15111, "ico": "H", "cod": "230002","cod_old": "230002", "estado": "DIFERIDO"},
{"nom": "PUENTE BELLA", "cate": "HLM", "lat": -9.32, "lon": -76.02778, "ico": "H", "cod": "230004","cod_old": "230004", "estado": "DIFERIDO"},
{"nom": "PUENTE PEREZ", "cate": "HLM", "lat": -9.34694, "lon": -75.9825, "ico": "H", "cod": "230001","cod_old": "230001", "estado": "DIFERIDO"},
{"nom": "LOS MOLINOS", "cate": "PLU", "lat": -13.92472, "lon": -75.67861, "ico": "M", "cod": "113244","cod_old": "113244", "estado": "DIFERIDO"},
{"nom": "CONTA", "cate": "HLG", "lat": -13.43942, "lon": -75.97514, "ico": "H", "cod": "203501","cod_old": "203501", "estado": "DIFERIDO"},
{"nom": "HUALLPOCA", "cate": "PLU", "lat": -14.63333, "lon": -74.95, "ico": "M", "cod": "114106","cod_old": "156225", "estado": "DIFERIDO"},
{"nom": "MADRIGAL", "cate": "CO", "lat": -15.60999, "lon": -71.80654, "ico": "M", "cod": "115092","cod_old": "157317", "estado": "DIFERIDO"},
{"nom": "SUMBAY", "cate": "HLG", "lat": -15.81667, "lon": -71.11667, "ico": "H", "cod": "204702","cod_old": "204702", "estado": "DIFERIDO"},
{"nom": "PILLONES", "cate": "CO", "lat": -15.97861, "lon": -71.21333, "ico": "M", "cod": "115126","cod_old": "158208", "estado": "DIFERIDO"},
{"nom": "PUENTE COLGANTE-SIBAYO", "cate": "HLG", "lat": -15.48929, "lon": -71.45705, "ico": "H", "cod": "204604","cod_old": "204604", "estado": "DIFERIDO"},
{"nom": "PORPERA", "cate": "CO", "lat": -15.35, "lon": -71.31667, "ico": "M", "cod": "115101","cod_old": "157329", "estado": "DIFERIDO"},
{"nom": "TISCO", "cate": "CO", "lat": -15.35, "lon": -71.45, "ico": "M", "cod": "115098","cod_old": "157325", "estado": "DIFERIDO"},
{"nom": "CHICHAS", "cate": "CO", "lat": -15.54811, "lon": -72.91831, "ico": "M", "cod": "115078","cod_old": "157300", "estado": "DIFERIDO"},
{"nom": "SALAMANCA", "cate": "HLM", "lat": -15.85, "lon": -72.83333, "ico": "H", "cod": "204501","cod_old": "204501", "estado": "DIFERIDO"},
{"nom": "YANAQUIHUA", "cate": "CO", "lat": -15.78306, "lon": -72.88278, "ico": "M", "cod": "115128","cod_old": "000864", "estado": "DIFERIDO"},
{"nom": "LA HACIENDITA", "cate": "CO", "lat": -16.99917, "lon": -71.58861, "ico": "M", "cod": "117006","cod_old": "000838", "estado": "DIFERIDO"},
{"nom": "CUYAU", "cate": "HLM", "lat": -15.21251, "lon": -72.92919, "ico": "H", "cod": "204506","cod_old": "204508", "estado": "DIFERIDO"},
{"nom": "PULLHUAY (AYAHUASI)", "cate": "CO", "lat": -15.13583, "lon": -72.75278, "ico": "M", "cod": "115084","cod_old": "157309", "estado": "DIFERIDO"},
{"nom": "PUICA", "cate": "CO", "lat": -15.0605, "lon": -72.69228, "ico": "M", "cod": "115082","cod_old": "157307", "estado": "DIFERIDO"},
{"nom": "HUANCASANCOS", "cate": "CO", "lat": -13.91694, "lon": -74.33361, "ico": "M", "cod": "100055","cod_old": "156218", "estado": "DIFERIDO"},
{"nom": "HUANTA", "cate": "CO", "lat": -12.94597, "lon": -74.24567, "ico": "M", "cod": "112068","cod_old": "000660", "estado": "DIFERIDO"},
{"nom": "HUASAPAMPA", "cate": "HLG", "lat": -14.26667, "lon": -73.95, "ico": "H", "cod": "230705","cod_old": "230705", "estado": "DIFERIDO"},
{"nom": "LLAUTA", "cate": "PLU", "lat": -14.24639, "lon": -74.92556, "ico": "M", "cod": "114067","cod_old": "157200", "estado": "DIFERIDO"},
{"nom": "LUCANAS", "cate": "PLU", "lat": -14.62, "lon": -74.23223, "ico": "M", "cod": "114072","cod_old": "157206", "estado": "DIFERIDO"},
{"nom": "LAMPA", "cate": "PLU", "lat": -15.18468, "lon": -73.34786, "ico": "M", "cod": "115076","cod_old": "157223", "estado": "DIFERIDO"},
{"nom": "CHILCAYOC", "cate": "CO", "lat": -13.88257, "lon": -73.72658, "ico": "M", "cod": "113101","cod_old": "156212", "estado": "DIFERIDO"},
{"nom": "AYLAMBO", "cate": "PE", "lat": -7.19345, "lon": -78.51012, "ico": "M", "cod": "107033","cod_old": "000316", "estado": "DIFERIDO"},
{"nom": "LA VICTORIA", "cate": "PE", "lat": -7.19119, "lon": -78.45947, "ico": "M", "cod": "107035","cod_old": "000318", "estado": "DIFERIDO"},
{"nom": "CHOTANO LAJAS", "cate": "PLU", "lat": -6.55972, "lon": -78.74833, "ico": "M", "cod": "106084","cod_old": "153235", "estado": "DIFERIDO"},
{"nom": "CASCABAMBA", "cate": "HLM", "lat": -7.38332, "lon": -78.73377, "ico": "H", "cod": "201301","cod_old": "201301", "estado": "DIFERIDO"},
{"nom": "OCROS", "cate": "PLU", "lat": -10.40457, "lon": -77.40025, "ico": "M", "cod": "110051","cod_old": "155105", "estado": "DIFERIDO"},
{"nom": "CAHUA", "cate": "HLG", "lat": -10.606, "lon": -77.34389, "ico": "H", "cod": "202404","cod_old": "202404", "estado": "DIFERIDO"},
{"nom": "NUEVO PACHACOTO", "cate": "PLU", "lat": -9.85242, "lon": -77.40607, "ico": "M", "cod": "109095","cod_old": "109095", "estado": "DIFERIDO"},
{"nom": "CHIRIACO", "cate": "CO", "lat": -5.16144, "lon": -78.28806, "ico": "M", "cod": "105104","cod_old": "000229", "estado": "DIFERIDO"},
{"nom": "SANTA MARIA DE NIEVA", "cate": "CO", "lat": -4.83039, "lon": -77.93928, "ico": "M", "cod": "104060","cod_old": "000256", "estado": "DIFERIDO"},
{"nom": "EL PINTOR", "cate": "PLU", "lat": -5.7562, "lon": -78.52286, "ico": "M", "cod": "105040","cod_old": "152204", "estado": "DIFERIDO"},
{"nom": "MAGUNCHAL", "cate": "PLU", "lat": -5.89106, "lon": -78.18886, "ico": "M", "cod": "105046","cod_old": "152210", "estado": "DIFERIDO"},
{"nom": "MAGUNCHAL", "cate": "HLG", "lat": -5.89006, "lon": -78.18765, "ico": "H", "cod": "221506","cod_old": "221506", "estado": "DIFERIDO"},
{"nom": "EL PALTO", "cate": "CO", "lat": -6.00039, "lon": -78.47097, "ico": "M", "cod": "106121","cod_old": "003332", "estado": "DIFERIDO"},
{"nom": "SAN PEDRO", "cate": "HLM", "lat": -9.60776, "lon": -77.50963, "ico": "H", "cod": "211404","cod_old": "201720", "estado": "DIFERIDO"},
{"nom": "SANTIAGO ANTUNEZ DE MAYOLO", "cate": "MAP", "lat": -9.51653, "lon": -77.52486, "ico": "M", "cod": "109009","cod_old": "000426", "estado": "DIFERIDO"},
{"nom": "CHACCHAN", "cate": "PLU", "lat": -9.53519, "lon": -77.77536, "ico": "M", "cod": "109045","cod_old": "154107", "estado": "DIFERIDO"},
{"nom": "PIRA", "cate": "PLU", "lat": -9.58528, "lon": -77.70719, "ico": "M", "cod": "109048","cod_old": "154110", "estado": "DIFERIDO"},
{"nom": "MAYORARCA", "cate": "PLU", "lat": -10.15775, "lon": -77.34889, "ico": "M", "cod": "110040","cod_old": "150903", "estado": "DIFERIDO"},
{"nom": "BUENA VISTA", "cate": "CO", "lat": -9.43371, "lon": -78.20825, "ico": "M", "cod": "109014","cod_old": "000435", "estado": "DIFERIDO"},
{"nom": "CUNYAC", "cate": "PLU", "lat": -13.56, "lon": -72.57389, "ico": "M", "cod": "113136","cod_old": "156224", "estado": "DIFERIDO"},
{"nom": "CHARCANI", "cate": "HLG", "lat": -16.31086, "lon": -71.49511, "ico": "H", "cod": "204710","cod_old": "204711", "estado": "DIFERIDO"},
{"nom": "LAS SALINAS", "cate": "CO", "lat": -16.31778, "lon": -71.14806, "ico": "M", "cod": "116046","cod_old": "158209", "estado": "DIFERIDO"},
{"nom": "EL FRAYLE", "cate": "CO", "lat": -16.15482, "lon": -71.1891, "ico": "M", "cod": "116022","cod_old": "000849", "estado": "DIFERIDO"},
{"nom": "PATAHUASI-AREQUIPA", "cate": "CO", "lat": -16.05542, "lon": -71.41481, "ico": "M", "cod": "116073","cod_old": "116073", "estado": "DIFERIDO"},
{"nom": "PAMPA DE ARRIEROS", "cate": "CO", "lat": -16.06306, "lon": -71.58889, "ico": "M", "cod": "116043","cod_old": "158204", "estado": "DIFERIDO"},
{"nom": "AYO", "cate": "CO", "lat": -15.67917, "lon": -72.27028, "ico": "M", "cod": "115088","cod_old": "157313", "estado": "DIFERIDO"},
{"nom": "CHACHAS", "cate": "CO", "lat": -15.50242, "lon": -72.26852, "ico": "M", "cod": "115087","cod_old": "157312", "estado": "DIFERIDO"},
{"nom": "GORGOR", "cate": "PLU", "lat": -10.62136, "lon": -77.04027, "ico": "M", "cod": "110041","cod_old": "151208", "estado": "DIFERIDO"},
{"nom": "ARAHUAY", "cate": "PLU", "lat": -11.61667, "lon": -76.7, "ico": "M", "cod": "111057","cod_old": "151204", "estado": "DIFERIDO"},
{"nom": "HUAMANTANGA", "cate": "PLU", "lat": -11.5, "lon": -76.75, "ico": "M", "cod": "111085","cod_old": "155209", "estado": "DIFERIDO"},
{"nom": "HUAROS", "cate": "PLU", "lat": -11.40743, "lon": -76.5758, "ico": "M", "cod": "111089","cod_old": "155218", "estado": "DIFERIDO"},
{"nom": "PARIACANCHA", "cate": "HLM", "lat": -11.39315, "lon": -76.50244, "ico": "H", "cod": "202801","cod_old": "202801", "estado": "DIFERIDO"},
{"nom": "PARIACANCHA", "cate": "PLU", "lat": -11.39357, "lon": -76.50271, "ico": "M", "cod": "111067","cod_old": "155112", "estado": "DIFERIDO"},
{"nom": "LACHAQUI", "cate": "PLU", "lat": -11.55327, "lon": -76.62844, "ico": "M", "cod": "111088","cod_old": "155217", "estado": "DIFERIDO"},
{"nom": "OBRAJILLO", "cate": "PLU", "lat": -11.45264, "lon": -76.62206, "ico": "M", "cod": "111159","cod_old": "156133", "estado": "DIFERIDO"},
{"nom": "LA CAPILLA  2", "cate": "CO", "lat": -12.52169, "lon": -76.49314, "ico": "M", "cod": "112054","cod_old": "000631", "estado": "DIFERIDO"},
{"nom": "PIRCA", "cate": "PLU", "lat": -11.2328, "lon": -76.65513, "ico": "M", "cod": "111087","cod_old": "155214", "estado": "DIFERIDO"},
{"nom": "PALLAC", "cate": "PLU", "lat": -11.34874, "lon": -76.80804, "ico": "M", "cod": "111083","cod_old": "155205", "estado": "DIFERIDO"},
{"nom": "ENAPU PERU", "cate": "HLM", "lat": -3.72722, "lon": -73.23694, "ico": "H", "cod": "240102","cod_old": "240101", "estado": "DIFERIDO"},
{"nom": "PUERTO ALMENDRA", "cate": "HLM", "lat": -3.82743, "lon": -73.37741, "ico": "H", "cod": "240302","cod_old": "240302", "estado": "DIFERIDO"},
{"nom": "SEDA LORETO", "cate": "HLM", "lat": -3.75361, "lon": -73.28056, "ico": "H", "cod": "240106","cod_old": "240105", "estado": "DIFERIDO"},
{"nom": "MORALILLO", "cate": "CP", "lat": -3.89967, "lon": -73.33833, "ico": "M", "cod": "103023","cod_old": "000153", "estado": "DIFERIDO"},
{"nom": "ANGAMOS", "cate": "HLM", "lat": -5.17378, "lon": -72.89205, "ico": "H", "cod": "240401","cod_old": "240111", "estado": "DIFERIDO"},
{"nom": "ANGAMOS", "cate": "CO", "lat": -5.14913, "lon": -72.89205, "ico": "M", "cod": "105078","cod_old": "000269", "estado": "DIFERIDO"},
{"nom": "EL ESTRECHO", "cate": "HLM", "lat": -2.44506, "lon": -72.66739, "ico": "H", "cod": "240402","cod_old": "240402", "estado": "DIFERIDO"},
{"nom": "EL ESTRECHO", "cate": "CO", "lat": -2.44767, "lon": -72.66747, "ico": "M", "cod": "102006","cod_old": "000110", "estado": "DIFERIDO"},
{"nom": "SANTA CRUZ", "cate": "PLU", "lat": -11.19827, "lon": -76.63487, "ico": "M", "cod": "111081","cod_old": "155202", "estado": "DIFERIDO"},
{"nom": "ANTIOQUIA", "cate": "PE", "lat": -12.08333, "lon": -76.5, "ico": "M", "cod": "112124","cod_old": "156100", "estado": "DIFERIDO"},
{"nom": "CARAMPOMA", "cate": "PLU", "lat": -11.65503, "lon": -76.51514, "ico": "M", "cod": "111091","cod_old": "155223", "estado": "DIFERIDO"},
{"nom": "SHEQUE", "cate": "PLU", "lat": -11.66095, "lon": -76.5023, "ico": "M", "cod": "111062","cod_old": "151213", "estado": "DIFERIDO"},
{"nom": "MILLOC", "cate": "HLM", "lat": -11.57046, "lon": -76.35017, "ico": "H", "cod": "202902","cod_old": "202902", "estado": "DIFERIDO"},
{"nom": "MILLOC", "cate": "PLU", "lat": -11.57131, "lon": -76.34995, "ico": "M", "cod": "111144","cod_old": "155514", "estado": "DIFERIDO"},
{"nom": "CASAPALCA", "cate": "PLU", "lat": -11.63804, "lon": -76.23332, "ico": "M", "cod": "111114","cod_old": "155446", "estado": "DIFERIDO"},
{"nom": "RIO BLANCO", "cate": "PLU", "lat": -11.73447, "lon": -76.25967, "ico": "M", "cod": "111061","cod_old": "151210", "estado": "DIFERIDO"},
{"nom": "TINGO", "cate": "PLU", "lat": -11.61667, "lon": -76.48334, "ico": "M", "cod": "111066","cod_old": "155111", "estado": "DIFERIDO"},
{"nom": "LANGA", "cate": "PLU", "lat": -12.12645, "lon": -76.42108, "ico": "M", "cod": "112082","cod_old": "151214", "estado": "DIFERIDO"},
{"nom": "AUTISHA", "cate": "PLU", "lat": -11.73815, "lon": -76.61103, "ico": "M", "cod": "111077","cod_old": "155122", "estado": "DIFERIDO"},
{"nom": "AUTISHA", "cate": "HLM", "lat": -11.73523, "lon": -76.60659, "ico": "H", "cod": "202903","cod_old": "202903", "estado": "DIFERIDO"},
{"nom": "SAN JOSE DE PARAC", "cate": "PLU", "lat": -11.80053, "lon": -76.25811, "ico": "M", "cod": "111093","cod_old": "155225", "estado": "DIFERIDO"},
{"nom": "SAN MATEO DE OTAO", "cate": "PLU", "lat": -11.84685, "lon": -76.56358, "ico": "M", "cod": "111291","cod_old": "111291", "estado": "DIFERIDO"},
{"nom": "HUANCATA", "cate": "PLU", "lat": -12.18618, "lon": -76.24066, "ico": "M", "cod": "112080","cod_old": "151207", "estado": "DIFERIDO"},
{"nom": "SANTIAGO DE TUNA", "cate": "PLU", "lat": -11.98311, "lon": -76.52415, "ico": "M", "cod": "111092","cod_old": "155224", "estado": "DIFERIDO"},
{"nom": "AMBAR", "cate": "PLU", "lat": -10.75, "lon": -77.28333, "ico": "M", "cod": "110042","cod_old": "151211", "estado": "DIFERIDO"},
{"nom": "PAMPA LIBRE", "cate": "CO", "lat": -10.86578, "lon": -76.97, "ico": "M", "cod": "110053","cod_old": "155107", "estado": "DIFERIDO"},
{"nom": "PACHAMACHAY", "cate": "PLU", "lat": -11.06525, "lon": -76.9141, "ico": "M", "cod": "111084","cod_old": "155207", "estado": "DIFERIDO"},
{"nom": "PACCHO", "cate": "PLU", "lat": -10.95, "lon": -76.93333, "ico": "M", "cod": "110056","cod_old": "155200", "estado": "DIFERIDO"},
{"nom": "PARQUIN", "cate": "PLU", "lat": -10.96665, "lon": -76.71983, "ico": "M", "cod": "110063","cod_old": "155212", "estado": "DIFERIDO"},
{"nom": "LAGUNA SURASACA", "cate": "HLG", "lat": -10.51667, "lon": -76.78333, "ico": "H", "cod": "202601","cod_old": "202601", "estado": "DIFERIDO"},
{"nom": "LAGUNA SURASACA", "cate": "PLU", "lat": -10.52383, "lon": -76.78667, "ico": "M", "cod": "110059","cod_old": "155206", "estado": "DIFERIDO"},
{"nom": "LAGUNA COCHAQUILLO", "cate": "PLU", "lat": -10.78333, "lon": -76.66667, "ico": "M", "cod": "110092","cod_old": "155291", "estado": "DIFERIDO"},
{"nom": "OYON", "cate": "CO", "lat": -10.66769, "lon": -76.7687, "ico": "M", "cod": "110020","cod_old": "000541", "estado": "DIFERIDO"},
{"nom": "ANDAJES", "cate": "PLU", "lat": -10.78333, "lon": -76.9, "ico": "M", "cod": "110057","cod_old": "155201", "estado": "DIFERIDO"},
{"nom": "YAURICOCHA", "cate": "PLU", "lat": -12.31478, "lon": -75.71209, "ico": "M", "cod": "112096","cod_old": "155450", "estado": "DIFERIDO"},
{"nom": "AYAVIRI", "cate": "PLU", "lat": -12.38208, "lon": -76.13672, "ico": "M", "cod": "112128","cod_old": "156104", "estado": "DIFERIDO"},
{"nom": "CARANIA", "cate": "PE", "lat": -12.3444, "lon": -75.87215, "ico": "M", "cod": "112133","cod_old": "156109", "estado": "DIFERIDO"},
{"nom": "VILCA", "cate": "PE", "lat": -12.11457, "lon": -75.82617, "ico": "M", "cod": "112135","cod_old": "156111", "estado": "DIFERIDO"},
{"nom": "HUAÑEC", "cate": "PLU", "lat": -12.29359, "lon": -76.13902, "ico": "M", "cod": "112127","cod_old": "156103", "estado": "DIFERIDO"},
{"nom": "SAN PEDRO DE PILAS", "cate": "PLU", "lat": -12.4548, "lon": -76.22559, "ico": "M", "cod": "112081","cod_old": "151212", "estado": "DIFERIDO"},
{"nom": "TANTA", "cate": "PE", "lat": -12.11667, "lon": -76.01667, "ico": "M", "cod": "112130","cod_old": "156106", "estado": "DIFERIDO"},
{"nom": "AMAZONAS", "cate": "CO", "lat": -3.76397, "lon": -73.25492, "ico": "M", "cod": "103057","cod_old": "000154", "estado": "DIFERIDO"},
{"nom": "SAN ROQUE", "cate": "CP", "lat": -3.78667, "lon": -73.29333, "ico": "M", "cod": "103052","cod_old": "000176", "estado": "DIFERIDO"},
{"nom": "SANTA MARIA NANAY", "cate": "HLM", "lat": -3.83361, "lon": -73.66694, "ico": "H", "cod": "240001","cod_old": "240110", "estado": "DIFERIDO"},
{"nom": "MANITI", "cate": "PE", "lat": -3.51972, "lon": -72.8405, "ico": "M", "cod": "103009","cod_old": "150201", "estado": "DIFERIDO"},
{"nom": "TIMICURILLO", "cate": "PLU", "lat": -3.52311, "lon": -73.08333, "ico": "M", "cod": "103011","cod_old": "150204", "estado": "DIFERIDO"},
{"nom": "TIMICURILLO", "cate": "HLM", "lat": -3.51694, "lon": -73.08361, "ico": "H", "cod": "240202","cod_old": "240202", "estado": "DIFERIDO"},
{"nom": "BELLAVISTA", "cate": "HLM", "lat": -3.48206, "lon": -73.0735, "ico": "H", "cod": "240111","cod_old": "260102", "estado": "DIFERIDO"},
{"nom": "BELLAVISTA", "cate": "PLU", "lat": -3.48261, "lon": -73.63333, "ico": "M", "cod": "103012","cod_old": "150205", "estado": "DIFERIDO"},
{"nom": "LA LIBERTAD", "cate": "PLU", "lat": -3.4625, "lon": -73.24056, "ico": "M", "cod": "103014","cod_old": "150207", "estado": "DIFERIDO"},
{"nom": "LA LIBERTAD", "cate": "HLM", "lat": -3.45694, "lon": -73.24222, "ico": "H", "cod": "240112","cod_old": "260201", "estado": "DIFERIDO"},
{"nom": "SANTA CRUZ", "cate": "PLU", "lat": -3.50028, "lon": -73.13361, "ico": "M", "cod": "103013","cod_old": "150206", "estado": "DIFERIDO"},
{"nom": "SANTA CRUZ", "cate": "HLM", "lat": -3.50028, "lon": -73.13361, "ico": "H", "cod": "240109","cod_old": "240109", "estado": "DIFERIDO"},
{"nom": "SANTA MARIA DE NANAY", "cate": "PLU", "lat": -3.8894, "lon": -73.69617, "ico": "M", "cod": "103030","cod_old": "152409", "estado": "DIFERIDO"},
{"nom": "SANTA CLOTILDE", "cate": "HLM", "lat": -2.48747, "lon": -73.67922, "ico": "H", "cod": "240110","cod_old": "260101", "estado": "DIFERIDO"},
{"nom": "YURIMAGUAS ENP", "cate": "HLM", "lat": -5.898, "lon": -76.101, "ico": "H", "cod": "230602","cod_old": "230602", "estado": "DIFERIDO"},
{"nom": "SHANUSI", "cate": "CO", "lat": -6.07139, "lon": -76.25861, "ico": "M", "cod": "100132","cod_old": "153315", "estado": "DIFERIDO"},
{"nom": "LAGUNAS", "cate": "PLU", "lat": -5.22173, "lon": -75.66546, "ico": "M", "cod": "100080","cod_old": "152304", "estado": "DIFERIDO"},
{"nom": "BORJA", "cate": "PLU", "lat": -4.45028, "lon": -77.45028, "ico": "M", "cod": "104061","cod_old": "000270", "estado": "DIFERIDO"},
{"nom": "BORJA", "cate": "HLM", "lat": -4.47, "lon": -77.548, "ico": "H", "cod": "220107","cod_old": "220107", "estado": "DIFERIDO"},
{"nom": "NAUTA", "cate": "HLM", "lat": -4.50736, "lon": -73.5733, "ico": "H", "cod": "221402","cod_old": "221401", "estado": "DIFERIDO"},
{"nom": "SAN REGIS", "cate": "PE", "lat": -4.51083, "lon": -73.90972, "ico": "M", "cod": "104098","cod_old": "150212", "estado": "DIFERIDO"},
{"nom": "SAN REGIS", "cate": "HLM", "lat": -4.51439, "lon": -73.9054, "ico": "H", "cod": "220105","cod_old": "220105", "estado": "DIFERIDO"},
{"nom": "BAGAZAN", "cate": "PE", "lat": -4.75963, "lon": -73.60377, "ico": "M", "cod": "104067","cod_old": "152406", "estado": "DIFERIDO"},
{"nom": "SANTA RITA DE CASTILLA", "cate": "PE", "lat": -4.61388, "lon": -74.3738, "ico": "M", "cod": "104065","cod_old": "152401", "estado": "DIFERIDO"},
{"nom": "SANTA ROSA", "cate": "PLU", "lat": -4.22636, "lon": -69.95629, "ico": "M", "cod": "104010","cod_old": "150209", "estado": "DIFERIDO"},
{"nom": "SANTA ROSA", "cate": "HLM", "lat": -4.25785, "lon": -69.95334, "ico": "H", "cod": "240108","cod_old": "240108", "estado": "DIFERIDO"},
{"nom": "REQUENA", "cate": "CO", "lat": -5.04264, "lon": -73.83556, "ico": "M", "cod": "105095","cod_old": "000280", "estado": "DIFERIDO"},
{"nom": "REQUENA", "cate": "HLM", "lat": -5.04169, "lon": -73.83829, "ico": "H", "cod": "250101","cod_old": "250101", "estado": "DIFERIDO"},
{"nom": "FLOR DE PUNGA", "cate": "HLM", "lat": -5.40779, "lon": -74.157, "ico": "H", "cod": "251100","cod_old": "231302", "estado": "DIFERIDO"},
{"nom": "TAMANCO", "cate": "PLU", "lat": -5.79442, "lon": -74.28375, "ico": "M", "cod": "105091","cod_old": "152403", "estado": "DIFERIDO"},
{"nom": "FLOR DE PUNGA", "cate": "CO", "lat": -5.40544, "lon": -74.15839, "ico": "M", "cod": "105092","cod_old": "152405", "estado": "DIFERIDO"},
{"nom": "BRETAÑA", "cate": "PE", "lat": -5.26568, "lon": -74.35638, "ico": "M", "cod": "105090","cod_old": "152402", "estado": "DIFERIDO"},
{"nom": "GENARO HERRERA", "cate": "HLM", "lat": -4.90442, "lon": -73.64972, "ico": "H", "cod": "251104","cod_old": "231303", "estado": "DIFERIDO"},
{"nom": "CONTAMANA", "cate": "HLM", "lat": -7.35208, "lon": -75.00056, "ico": "H", "cod": "251102","cod_old": "231301", "estado": "DIFERIDO"},
{"nom": "CONTAMANA", "cate": "CO", "lat": -7.35222, "lon": -75.00583, "ico": "M", "cod": "100034","cod_old": "000387", "estado": "DIFERIDO"},
{"nom": "QUINISTAQUILLAS", "cate": "CO", "lat": -16.77944, "lon": -70.89778, "ico": "M", "cod": "116049","cod_old": "158301", "estado": "DIFERIDO"},
{"nom": "TUMILACA", "cate": "PLU", "lat": -17.13361, "lon": -70.83361, "ico": "M", "cod": "117031","cod_old": "158314", "estado": "DIFERIDO"},
{"nom": "YACANGO", "cate": "CO", "lat": -17.09661, "lon": -70.86753, "ico": "M", "cod": "100150","cod_old": "000852", "estado": "DIFERIDO"},
{"nom": "OTORA", "cate": "HLG", "lat": -17.00694, "lon": -70.85336, "ico": "H", "cod": "214700","cod_old": "204812", "estado": "DIFERIDO"},
{"nom": "TUMILACA", "cate": "HLG", "lat": -17.16694, "lon": -70.75028, "ico": "H", "cod": "204804","cod_old": "204804", "estado": "DIFERIDO"},
{"nom": "OTORA", "cate": "PLU", "lat": -17.00722, "lon": -70.85361, "ico": "M", "cod": "117024","cod_old": "158302", "estado": "DIFERIDO"},
{"nom": "OMATE", "cate": "CO", "lat": -16.6775, "lon": -70.9825, "ico": "M", "cod": "116023","cod_old": "000850", "estado": "DIFERIDO"},
{"nom": "MIRAFLORES", "cate": "MAP", "lat": -5.17528, "lon": -80.61654, "ico": "M", "cod": "105100","cod_old": "000207", "estado": "DIFERIDO"},
{"nom": "PORCULLA", "cate": "PLU", "lat": -5.83964, "lon": -79.50572, "ico": "M", "cod": "100105","cod_old": "152132", "estado": "DIFERIDO"},
{"nom": "HACIENDA SHUMAYA", "cate": "PLU", "lat": -5.36681, "lon": -79.36056, "ico": "M", "cod": "105024","cod_old": "152128", "estado": "DIFERIDO"},
{"nom": "TULUCE", "cate": "PLU", "lat": -5.47718, "lon": -79.34742, "ico": "M", "cod": "105023","cod_old": "152127", "estado": "DIFERIDO"},
{"nom": "SONDORILLO", "cate": "HLG", "lat": -5.33922, "lon": -79.41575, "ico": "H", "cod": "220509","cod_old": "220510", "estado": "DIFERIDO"},
{"nom": "HACIENDA BIGOTE", "cate": "PLU", "lat": -5.3209, "lon": -79.7857, "ico": "M", "cod": "105015","cod_old": "152111", "estado": "DIFERIDO"},
{"nom": "ALAMOR", "cate": "PLU", "lat": -4.4792, "lon": -80.39783, "ico": "M", "cod": "104044","cod_old": "152153", "estado": "DIFERIDO"},
{"nom": "ALAMOR", "cate": "HLM", "lat": -4.4792, "lon": -80.3978, "ico": "H", "cod": "200322","cod_old": "200324", "estado": "DIFERIDO"},
{"nom": "PANANGA", "cate": "PLU", "lat": -4.51556, "lon": -80.73945, "ico": "M", "cod": "104014","cod_old": "152101", "estado": "DIFERIDO"},
{"nom": "PROGRESO", "cate": "CO", "lat": -14.69011, "lon": -70.02353, "ico": "M", "cod": "114040","cod_old": "000778", "estado": "DIFERIDO"},
{"nom": "OLLACHEA", "cate": "CO", "lat": -13.80389, "lon": -70.49714, "ico": "M", "cod": "113044","cod_old": "000695", "estado": "DIFERIDO"},
{"nom": "SAN GABAN", "cate": "CO", "lat": -13.44081, "lon": -70.40492, "ico": "M", "cod": "113119","cod_old": "156401", "estado": "DIFERIDO"},
{"nom": "DESAGUADERO", "cate": "CO", "lat": -16.56335, "lon": -69.03883, "ico": "M", "cod": "116060","cod_old": "000883", "estado": "DIFERIDO"},
{"nom": "CALLACAME", "cate": "PLU", "lat": -16.57225, "lon": -69.31697, "ico": "M", "cod": "116075","cod_old": "116075", "estado": "DIFERIDO"},
{"nom": "CAPAZO", "cate": "CO", "lat": -17.18772, "lon": -69.7355, "ico": "M", "cod": "117041","cod_old": "158326", "estado": "DIFERIDO"},
{"nom": "COJATA", "cate": "CO", "lat": -15.01667, "lon": -69.35556, "ico": "M", "cod": "115053","cod_old": "000827", "estado": "DIFERIDO"},
{"nom": "RAMIS", "cate": "PLU", "lat": -15.25544, "lon": -69.87381, "ico": "M", "cod": "270200","cod_old": "157733", "estado": "DIFERIDO"},
{"nom": "TARACO", "cate": "CO", "lat": -15.31167, "lon": -69.97247, "ico": "M", "cod": "115047","cod_old": "000816", "estado": "DIFERIDO"},
{"nom": "CHUQUIBAMBILLA", "cate": "CP", "lat": -14.78478, "lon": -70.71569, "ico": "M", "cod": "114035","cod_old": "000764", "estado": "DIFERIDO"},
{"nom": "ISLA SOTO", "cate": "CO", "lat": -15.56228, "lon": -69.48883, "ico": "M", "cod": "100065","cod_old": "000817", "estado": "DIFERIDO"},
{"nom": "JULIACA", "cate": "CO", "lat": -15.47444, "lon": -70.16944, "ico": "M", "cod": "115138","cod_old": "007454", "estado": "DIFERIDO"},
{"nom": "PUENTE ISLA CABANILLAS", "cate": "HLM", "lat": -15.47211, "lon": -70.22436, "ico": "H", "cod": "210406","cod_old": "210406", "estado": "DIFERIDO"},
{"nom": "LAMPA", "cate": "HLM", "lat": -15.44386, "lon": -70.20903, "ico": "H", "cod": "210405","cod_old": "210405", "estado": "DIFERIDO"},
{"nom": "CUYO CUYO", "cate": "CO", "lat": -14.48892, "lon": -69.549, "ico": "M", "cod": "114096","cod_old": "157418", "estado": "DIFERIDO"},
{"nom": "LIMBANI", "cate": "CO", "lat": -14.15375, "lon": -69.70561, "ico": "M", "cod": "114049","cod_old": "000825", "estado": "DIFERIDO"},
{"nom": "LIMBANI", "cate": "HLG", "lat": -14.15375, "lon": -69.70561, "ico": "H", "cod": "260501","cod_old": "260501", "estado": "DIFERIDO"},
{"nom": "TAHUACO - YUNGUYO", "cate": "CO", "lat": -16.30783, "lon": -69.07472, "ico": "M", "cod": "116030","cod_old": "000882", "estado": "DIFERIDO"},
{"nom": "ISLA SUANA", "cate": "CO", "lat": -16.33022, "lon": -68.85094, "ico": "M", "cod": "116009","cod_old": "000822", "estado": "DIFERIDO"},
{"nom": "DOS DE MAYO (J. OLAYA)", "cate": "CO", "lat": -7.40778, "lon": -76.40611, "ico": "M", "cod": "107069","cod_old": "153225", "estado": "DIFERIDO"},
{"nom": "CUZCO-BIAVO", "cate": "PLU", "lat": -7.26292, "lon": -76.48611, "ico": "M", "cod": "107095","cod_old": "153345", "estado": "DIFERIDO"},
{"nom": "BIAVO", "cate": "HLG", "lat": -7.26667, "lon": -76.5, "ico": "H", "cod": "221804","cod_old": "221804", "estado": "DIFERIDO"},
{"nom": "LA UNION", "cate": "CO", "lat": -7.17222, "lon": -76.48722, "ico": "M", "cod": "107013","cod_old": "000384", "estado": "DIFERIDO"},
{"nom": "NUEVO LIMA", "cate": "CO", "lat": -7.12611, "lon": -76.48278, "ico": "M", "cod": "107089","cod_old": "153312", "estado": "DIFERIDO"},
{"nom": "PACAYZAPA", "cate": "CO", "lat": -6.28333, "lon": -76.85, "ico": "M", "cod": "110127","cod_old": "110127", "estado": "DIFERIDO"},
{"nom": "SHANAO", "cate": "PLU", "lat": -6.41312, "lon": -76.60028, "ico": "M", "cod": "106115","cod_old": "153328", "estado": "DIFERIDO"},
{"nom": "SHANAO", "cate": "HLG", "lat": -6.41291, "lon": -76.60001, "ico": "H", "cod": "221802","cod_old": "221802", "estado": "DIFERIDO"},
{"nom": "CUÑUMBUQUE", "cate": "PLU", "lat": -6.50028, "lon": -76.50028, "ico": "M", "cod": "106094","cod_old": "153311", "estado": "DIFERIDO"},
{"nom": "HUAYABAMBA", "cate": "PLU", "lat": -7.23333, "lon": -76.75, "ico": "M", "cod": "107101","cod_old": "153350", "estado": "DIFERIDO"},
{"nom": "CAMPANILLA", "cate": "CO", "lat": -7.44222, "lon": -76.67, "ico": "M", "cod": "100019","cod_old": "003304", "estado": "DIFERIDO"},
{"nom": "CAMPANILLA", "cate": "HLM", "lat": -7.43333, "lon": -76.68333, "ico": "H", "cod": "221821","cod_old": "221902", "estado": "DIFERIDO"},
{"nom": "PICOTA", "cate": "PLU", "lat": -6.93361, "lon": -76.33361, "ico": "M", "cod": "106095","cod_old": "153313", "estado": "DIFERIDO"},
{"nom": "NARANJILLO", "cate": "CO", "lat": -5.82611, "lon": -77.38722, "ico": "M", "cod": "105103","cod_old": "000219", "estado": "DIFERIDO"},
{"nom": "LAGUNA SAUCE", "cate": "HLM", "lat": -6.71667, "lon": -76.25, "ico": "H", "cod": "221806","cod_old": "221807", "estado": "DIFERIDO"},
{"nom": "NAVARRO", "cate": "CO", "lat": -6.35153, "lon": -75.77361, "ico": "M", "cod": "106018","cod_old": "000386", "estado": "DIFERIDO"},
{"nom": "PELEJO", "cate": "CO", "lat": -6.21556, "lon": -75.79, "ico": "M", "cod": "106112","cod_old": "153322", "estado": "DIFERIDO"},
{"nom": "PUCALLPA - HUIMBAYOC", "cate": "PLU", "lat": -6.45278, "lon": -75.84556, "ico": "M", "cod": "106110","cod_old": "153320", "estado": "DIFERIDO"},
{"nom": "CUMBAZA", "cate": "HLG", "lat": -6.46694, "lon": -76.38361, "ico": "H", "cod": "221801","cod_old": "221801", "estado": "DIFERIDO"},
{"nom": "SAN ANTONIO", "cate": "CO", "lat": -6.41694, "lon": -76.41694, "ico": "M", "cod": "106096","cod_old": "153314", "estado": "DIFERIDO"},
{"nom": "CANAL UCHUSUMA", "cate": "HLM", "lat": -17.91528, "lon": -70.04472, "ico": "H", "cod": "215000","cod_old": "205206", "estado": "DIFERIDO"},
{"nom": "PAUCARANI", "cate": "CO", "lat": -17.525, "lon": -69.77944, "ico": "M", "cod": "117043","cod_old": "158328", "estado": "DIFERIDO"},
{"nom": "PAMPA UMALZO (TITIJONES)", "cate": "CO", "lat": -16.875, "lon": -70.42361, "ico": "M", "cod": "116052","cod_old": "158309", "estado": "DIFERIDO"},
{"nom": "CAIRANI", "cate": "CO", "lat": -17.28806, "lon": -70.33889, "ico": "M", "cod": "117030","cod_old": "158313", "estado": "DIFERIDO"},
{"nom": "ARICOTA", "cate": "CO", "lat": -17.32561, "lon": -70.23536, "ico": "M", "cod": "117054","cod_old": "117054", "estado": "DIFERIDO"},
{"nom": "LOCUMBA", "cate": "CO", "lat": -17.60972, "lon": -70.76222, "ico": "M", "cod": "117010","cod_old": "000853", "estado": "DIFERIDO"},
{"nom": "CHUAPALCA", "cate": "HLM", "lat": -17.36389, "lon": -69.635, "ico": "H", "cod": "270900","cod_old": "211706", "estado": "DIFERIDO"},
{"nom": "LA FRONTERA", "cate": "CO", "lat": -17.39359, "lon": -69.46759, "ico": "M", "cod": "117049","cod_old": "158332", "estado": "DIFERIDO"},
{"nom": "CHUAPALCA", "cate": "CO", "lat": -17.305, "lon": -69.64361, "ico": "M", "cod": "117013","cod_old": "000860", "estado": "DIFERIDO"},
{"nom": "TALABAYA", "cate": "PE", "lat": -17.55917, "lon": -69.99972, "ico": "M", "cod": "117039","cod_old": "158323", "estado": "DIFERIDO"},
{"nom": "SITAJARA", "cate": "PLU", "lat": -17.3725, "lon": -70.13556, "ico": "M", "cod": "117034","cod_old": "158318", "estado": "DIFERIDO"},
{"nom": "VILACOTA", "cate": "CO", "lat": -17.1175, "lon": -70.05083, "ico": "M", "cod": "117014","cod_old": "000861", "estado": "DIFERIDO"},
{"nom": "VILACOTA", "cate": "HLM", "lat": -17.11978, "lon": -70.05653, "ico": "H", "cod": "211705","cod_old": "211707", "estado": "DIFERIDO"},
{"nom": "SUSAPAYA", "cate": "CO", "lat": -17.351, "lon": -70.13333, "ico": "M", "cod": "117033","cod_old": "158317", "estado": "DIFERIDO"},
{"nom": "CABO INGA", "cate": "CO", "lat": -3.97594, "lon": -80.40182, "ico": "M", "cod": "103043","cod_old": "000139", "estado": "DIFERIDO"},
{"nom": "MATAPALO", "cate": "PLU", "lat": -3.68284, "lon": -80.19859, "ico": "M", "cod": "103008","cod_old": "150112", "estado": "DIFERIDO"},
{"nom": "PUCALLPA", "cate": "CP", "lat": -8.41323, "lon": -74.57185, "ico": "M", "cod": "108021","cod_old": "000449", "estado": "DIFERIDO"},
{"nom": "EL BOQUERON", "cate": "CO", "lat": -8.5825, "lon": -74.86611, "ico": "M", "cod": "109090","cod_old": "109090", "estado": "DIFERIDO"},
{"nom": "EL MARONAL", "cate": "CP", "lat": -8.44999, "lon": -75.09675, "ico": "M", "cod": "108027","cod_old": "000459", "estado": "DIFERIDO"},
{"nom": "LETRAYOC", "cate": "PLU", "lat": -13.63972, "lon": -75.71889, "ico": "M", "cod": "113153","cod_old": "156132", "estado": "DIFERIDO"},
{"nom": "HUANCANO", "cate": "CO", "lat": -13.60118, "lon": -75.62102, "ico": "M", "cod": "113009","cod_old": "000639", "estado": "DIFERIDO"},
{"nom": "ACOPALCA", "cate": "CO", "lat": -11.92745, "lon": -75.11625, "ico": "M", "cod": "111174","cod_old": "111174", "estado": "DIFERIDO"},
{"nom": "PUENTE BREÑA", "cate": "PLU", "lat": -12.04806, "lon": -75.24194, "ico": "M", "cod": "112263","cod_old": "112263", "estado": "DIFERIDO"},
{"nom": "PERENE", "cate": "PLU", "lat": -10.94917, "lon": -74.83056, "ico": "M", "cod": "110133","cod_old": "155421", "estado": "DIFERIDO"},
{"nom": "PERENE", "cate": "HLG", "lat": -10.94944, "lon": -74.83083, "ico": "H", "cod": "230930","cod_old": "230938", "estado": "DIFERIDO"},
{"nom": "RIO TULUMAYO", "cate": "PLU", "lat": -11.20139, "lon": -75.34606, "ico": "M", "cod": "111281","cod_old": "111281", "estado": "DIFERIDO"},
{"nom": "PUERTO OCOPA", "cate": "CO", "lat": -11.13361, "lon": -74.25028, "ico": "M", "cod": "111039","cod_old": "000572", "estado": "DIFERIDO"},
{"nom": "CARHUACAYAN", "cate": "PLU", "lat": -11.20267, "lon": -76.28505, "ico": "M", "cod": "111070","cod_old": "155115", "estado": "DIFERIDO"},
{"nom": "RIO PALLANGA", "cate": "HLM", "lat": -11.1865, "lon": -76.32569, "ico": "H", "cod": "230801","cod_old": "230902", "estado": "DIFERIDO"},
{"nom": "RUMICHACA", "cate": "HLM", "lat": -11.7, "lon": -76.1, "ico": "H", "cod": "230803","cod_old": "230908", "estado": "DIFERIDO"},
{"nom": "YAULI", "cate": "PLU", "lat": -11.66667, "lon": -76.08333, "ico": "M", "cod": "111099","cod_old": "155235", "estado": "DIFERIDO"},
{"nom": "JULCAN", "cate": "PLU", "lat": -8.04229, "lon": -78.48607, "ico": "M", "cod": "108043","cod_old": "154101", "estado": "DIFERIDO"},
{"nom": "SINSICAP", "cate": "PLU", "lat": -7.85021, "lon": -78.75503, "ico": "M", "cod": "107059","cod_old": "153206", "estado": "DIFERIDO"},
{"nom": "TALLA (GUADALUPE)", "cate": "CP", "lat": -7.28005, "lon": -79.4191, "ico": "M", "cod": "100136","cod_old": "000325", "estado": "DIFERIDO"},
{"nom": "LAGUNA HUANGACOCHA", "cate": "HLM", "lat": -7.9325, "lon": -78.06705, "ico": "H", "cod": "220204","cod_old": "220204", "estado": "DIFERIDO"},
{"nom": "HUANGACOCHA", "cate": "PLU", "lat": -7.93761, "lon": -78.06811, "ico": "M", "cod": "107092","cod_old": "153327", "estado": "DIFERIDO"},
{"nom": "MOLLEPATA", "cate": "PE", "lat": -8.19137, "lon": -77.95397, "ico": "M", "cod": "108046","cod_old": "154106", "estado": "DIFERIDO"},
{"nom": "HUACAMARCANGA", "cate": "PE", "lat": -8.12139, "lon": -78.29306, "ico": "M", "cod": "108048","cod_old": "154112", "estado": "DIFERIDO"},
{"nom": "HUACAMARCANGA", "cate": "HLM", "lat": -8.10639, "lon": -78.29111, "ico": "H", "cod": "201717","cod_old": "201717", "estado": "DIFERIDO"},
{"nom": "QUIRUVILCA", "cate": "PLU", "lat": -8.00422, "lon": -78.30791, "ico": "M", "cod": "108044","cod_old": "154102", "estado": "DIFERIDO"},
{"nom": "TINAJONES", "cate": "CP", "lat": -6.65493, "lon": -79.4279, "ico": "M", "cod": "106049","cod_old": "000335", "estado": "DIFERIDO"},
{"nom": "BATAN", "cate": "HLG", "lat": -6.80359, "lon": -79.28932, "ico": "H", "cod": "201001","cod_old": "201001", "estado": "DIFERIDO"},
{"nom": "INCAHUASI", "cate": "CP", "lat": -6.23389, "lon": -79.31806, "ico": "M", "cod": "106037","cod_old": "000307", "estado": "DIFERIDO"},
{"nom": "CUEVA BLANCA", "cate": "PLU", "lat": -6.1313, "lon": -79.4045, "ico": "M", "cod": "106060","cod_old": "153102", "estado": "DIFERIDO"},
{"nom": "PUCHACA", "cate": "CO", "lat": -6.37361, "lon": -79.46951, "ico": "M", "cod": "106120","cod_old": "003114", "estado": "DIFERIDO"},
{"nom": "PUCHACA", "cate": "HLG", "lat": -6.37317, "lon": -79.46697, "ico": "H", "cod": "200801","cod_old": "200802", "estado": "DIFERIDO"},
{"nom": "CERRO DE ARENA", "cate": "CO", "lat": -5.92461, "lon": -80.20463, "ico": "M", "cod": "105122","cod_old": "105122", "estado": "DIFERIDO"},
{"nom": "PASAJE SUR", "cate": "CO", "lat": -5.91744, "lon": -79.97172, "ico": "M", "cod": "105121","cod_old": "105121", "estado": "DIFERIDO"},
{"nom": "CUTERVO", "cate": "CO", "lat": -6.37964, "lon": -78.80512, "ico": "M", "cod": "106057", "estado": "REAL"},
{"nom": "LLAUCANO CORELLAMA", "cate": "HLG", "lat": -6.68656, "lon": -78.51823, "ico": "H", "cod": "221106", "estado": "REAL"},
{"nom": "BAMBAMARCA", "cate": "CP", "lat": -6.67655, "lon": -78.51834, "ico": "M", "cod": "100015", "estado": "REAL"},
{"nom": "JAEN", "cate": "CP", "lat": -5.67664, "lon": -78.77416, "ico": "M", "cod": "105067", "estado": "REAL"},
{"nom": "SAN IGNACIO", "cate": "CO", "lat": -5.14708, "lon": -78.99512, "ico": "M", "cod": "105058", "estado": "REAL"},
{"nom": "CHIRINOS", "cate": "CO", "lat": -5.3085, "lon": -78.89759, "ico": "M", "cod": "105074", "estado": "REAL"},
{"nom": "NAMBALLE", "cate": "CO", "lat": -4.99953, "lon": -79.08862, "ico": "M", "cod": "105107", "estado": "REAL"},
{"nom": "TABACONAS", "cate": "CO", "lat": -5.31523, "lon": -79.28492, "ico": "M", "cod": "105056", "estado": "REAL"},
{"nom": "SAN MARCOS", "cate": "CO", "lat": -7.32249, "lon": -78.1727, "ico": "M", "cod": "107006", "estado": "REAL"},
{"nom": "SONDOR-MATARA", "cate": "CO", "lat": -7.23687, "lon": -78.21262, "ico": "M", "cod": "107038", "estado": "REAL"},
{"nom": "SAN MIGUEL", "cate": "CO", "lat": -6.99684, "lon": -78.85308, "ico": "M", "cod": "106038", "estado": "REAL"},
{"nom": "QUILCATE", "cate": "CO", "lat": -6.82275, "lon": -78.744, "ico": "M", "cod": "106039", "estado": "REAL"},
{"nom": "LLAPA", "cate": "CO", "lat": -6.97833, "lon": -78.81119, "ico": "M", "cod": "106019", "estado": "REAL"},
{"nom": "NIEPOS", "cate": "CO", "lat": -6.92511, "lon": -79.12902, "ico": "M", "cod": "100092", "estado": "REAL"},
{"nom": "SAN PABLO", "cate": "CO", "lat": -7.11775, "lon": -78.83083, "ico": "M", "cod": "107036", "estado": "REAL"},
{"nom": "SANTA CRUZ", "cate": "CO", "lat": -6.61657, "lon": -78.94761, "ico": "M", "cod": "106056", "estado": "REAL"},
{"nom": "UDIMA", "cate": "CO", "lat": -6.81474, "lon": -79.09377, "ico": "M", "cod": "106068", "estado": "REAL"},
{"nom": "GRANJA KCAYRA", "cate": "MAP", "lat": -13.55694, "lon": -71.87528, "ico": "M", "cod": "100044", "estado": "REAL"},
{"nom": "ACOMAYO", "cate": "CO", "lat": -13.91694, "lon": -71.68361, "ico": "M", "cod": "113038", "estado": "REAL"},
{"nom": "POMACANCHI", "cate": "CO", "lat": -14.02806, "lon": -71.57278, "ico": "M", "cod": "114046", "estado": "REAL"},
{"nom": "PUENTE CUNYAC", "cate": "HLG", "lat": -13.56222, "lon": -72.575, "ico": "H", "cod": "230503", "estado": "REAL"},
{"nom": "ANTA ANCACHURO", "cate": "CO", "lat": -13.46833, "lon": -72.21583, "ico": "M", "cod": "113035", "estado": "REAL"},
{"nom": "PISAC", "cate": "CO", "lat": -13.41611, "lon": -71.84972, "ico": "M", "cod": "100101", "estado": "REAL"},
{"nom": "PISAC", "cate": "HLG", "lat": -13.42778, "lon": -71.84139, "ico": "H", "cod": "250303", "estado": "REAL"},
{"nom": "QUEBRADA YANATILE", "cate": "CO", "lat": -12.68361, "lon": -72.28361, "ico": "M", "cod": "112154", "estado": "REAL"},
{"nom": "SICUANI", "cate": "CO", "lat": -14.25361, "lon": -71.23722, "ico": "M", "cod": "114033", "estado": "REAL"},
{"nom": "SALCCA", "cate": "HLM", "lat": -14.16991, "lon": -71.2319, "ico": "H", "cod": "250308", "estado": "REAL"},
{"nom": "SANTO TOMAS", "cate": "CO", "lat": -14.39944, "lon": -72.08861, "ico": "M", "cod": "114030", "estado": "REAL"},
{"nom": "PUENTE COLCA", "cate": "HLM", "lat": -14.4175, "lon": -72.17167, "ico": "H", "cod": "230502", "estado": "REAL"},
{"nom": "QUILLABAMBA", "cate": "CP", "lat": -12.85611, "lon": -72.69194, "ico": "M", "cod": "112036", "estado": "REAL"},
{"nom": "PARURO", "cate": "CO", "lat": -13.7675, "lon": -71.84472, "ico": "M", "cod": "113037", "estado": "REAL"},
{"nom": "PAUCARTAMBO", "cate": "HLG", "lat": -13.31472, "lon": -71.59528, "ico": "H", "cod": "250405", "estado": "REAL"},
{"nom": "PAUCARTAMBO", "cate": "CO", "lat": -13.32444, "lon": -71.59056, "ico": "M", "cod": "100100", "estado": "REAL"},
{"nom": "CAY CAY", "cate": "CO", "lat": -13.60028, "lon": -71.70028, "ico": "M", "cod": "113122", "estado": "REAL"},
{"nom": "CHACLLABAMBA", "cate": "HLG", "lat": -13.10694, "lon": -71.72056, "ico": "H", "cod": "250301", "estado": "REAL"},
{"nom": "CHALLABAMBA", "cate": "CO", "lat": -13.2175, "lon": -71.64722, "ico": "M", "cod": "100024", "estado": "REAL"},
{"nom": "COLQUEPATA", "cate": "CO", "lat": -13.36306, "lon": -71.67306, "ico": "M", "cod": "113116", "estado": "REAL"},
{"nom": "QUINCEMIL", "cate": "CO", "lat": -13.21694, "lon": -70.75028, "ico": "M", "cod": "100114", "estado": "REAL"},
{"nom": "CCATCCA", "cate": "CO", "lat": -13.61, "lon": -71.56028, "ico": "M", "cod": "113041", "estado": "REAL"},
{"nom": "URUBAMBA", "cate": "CP", "lat": -13.30517, "lon": -72.12455, "ico": "M", "cod": "113034", "estado": "REAL"},
{"nom": "MACHU PICCHU", "cate": "CO", "lat": -13.16655, "lon": -72.54585, "ico": "M", "cod": "113031", "estado": "REAL"},
{"nom": "PILCHACA", "cate": "CO", "lat": -12.41111, "lon": -75.09167, "ico": "M", "cod": "112060", "estado": "REAL"},
{"nom": "ACOBAMBA", "cate": "CO", "lat": -12.85306, "lon": -74.56028, "ico": "M", "cod": "112067", "estado": "REAL"},
{"nom": "LIRCAY", "cate": "CO", "lat": -12.98194, "lon": -74.71808, "ico": "M", "cod": "112065", "estado": "REAL"},
{"nom": "CHALLACA", "cate": "HLM", "lat": -13.78333, "lon": -75.4, "ico": "H", "cod": "213502", "estado": "REAL"},
{"nom": "PAMPAS", "cate": "CO", "lat": -12.39306, "lon": -74.86611, "ico": "M", "cod": "112012", "estado": "REAL"},
{"nom": "ACOSTAMBO", "cate": "CO", "lat": -12.36611, "lon": -75.05639, "ico": "M", "cod": "112051", "estado": "REAL"},
{"nom": "COLCABAMBA", "cate": "CO", "lat": -12.41472, "lon": -74.66681, "ico": "M", "cod": "112163", "estado": "REAL"},
{"nom": "SALCABAMBA", "cate": "CO", "lat": -12.19944, "lon": -74.78583, "ico": "M", "cod": "100120", "estado": "REAL"},
{"nom": "CANCHAN", "cate": "CO", "lat": -9.92095, "lon": -76.30962, "ico": "M", "cod": "100020", "estado": "REAL"},
{"nom": "PUENTE HIGUERAS", "cate": "HLM", "lat": -9.9222, "lon": -76.30938, "ico": "H", "cod": "221811", "estado": "REAL"},
{"nom": "HUANUCO", "cate": "CP", "lat": -9.95201, "lon": -76.24856, "ico": "M", "cod": "109003", "estado": "REAL"},
{"nom": "SAN RAFAEL", "cate": "HLM", "lat": -10.3399, "lon": -76.1824, "ico": "H", "cod": "221309", "estado": "REAL"},
{"nom": "SAN RAFAEL", "cate": "CO", "lat": -10.32924, "lon": -76.17652, "ico": "M", "cod": "110025", "estado": "REAL"},
{"nom": "DOS DE MAYO", "cate": "CO", "lat": -9.71694, "lon": -76.77361, "ico": "M", "cod": "109077", "estado": "REAL"},
{"nom": "TINGO MARIA", "cate": "CP", "lat": -9.3085, "lon": -76.00044, "ico": "M", "cod": "109027", "estado": "REAL"},
{"nom": "TINGO MARIA", "cate": "HLG", "lat": -9.29601, "lon": -76.00207, "ico": "H", "cod": "221820", "estado": "REAL"},
{"nom": "LA DIVISORIA", "cate": "CO", "lat": -9.20091, "lon": -75.81393, "ico": "M", "cod": "108025", "estado": "REAL"},
{"nom": "AUCAYACU", "cate": "CO", "lat": -8.92987, "lon": -76.11171, "ico": "M", "cod": "108033", "estado": "REAL"},
{"nom": "TULUMAYO", "cate": "MAP", "lat": -9.14706, "lon": -76.00944, "ico": "M", "cod": "109028", "estado": "REAL"},
{"nom": "CHAGLLA", "cate": "CO", "lat": -9.83361, "lon": -75.90028, "ico": "M", "cod": "109021", "estado": "REAL"},
{"nom": "PUERTO INCA", "cate": "HLM", "lat": -9.36694, "lon": -74.95028, "ico": "H", "cod": "231101", "estado": "REAL"},
{"nom": "PUERTO INCA", "cate": "CO", "lat": -9.38139, "lon": -74.96083, "ico": "M", "cod": "109032", "estado": "REAL"},
{"nom": "TOURNAVISTA", "cate": "CO", "lat": -8.92749, "lon": -74.70882, "ico": "M", "cod": "108034", "estado": "REAL"},
{"nom": "JACAS CHICO", "cate": "PE", "lat": -9.88361, "lon": -76.50028, "ico": "M", "cod": "109022", "estado": "REAL"},
{"nom": "TACAMA", "cate": "CO", "lat": -13.99978, "lon": -75.72052, "ico": "M", "cod": "113058", "estado": "REAL"},
{"nom": "OCUCAJE", "cate": "CO", "lat": -14.37844, "lon": -75.68208, "ico": "M", "cod": "114020", "estado": "REAL"},
{"nom": "SAN CAMILO", "cate": "MAP", "lat": -14.07331, "lon": -75.71101, "ico": "M", "cod": "114008", "estado": "REAL"},
{"nom": "LOS MOLINOS (ALEJANDRO PLAZA GARCIA)", "cate": "HLG", "lat": -13.92475, "lon": -75.67869, "ico": "H", "cod": "213500", "estado": "REAL"},
{"nom": "HUAMANI", "cate": "CO", "lat": -13.843, "lon": -75.60704, "ico": "M", "cod": "113010", "estado": "REAL"},
{"nom": "FONAGRO (CHINCHA)", "cate": "MAP", "lat": -13.45781, "lon": -76.13425, "ico": "M", "cod": "100043", "estado": "REAL"},
{"nom": "SAN JUAN DE YANAC", "cate": "CO", "lat": -13.21058, "lon": -75.78697, "ico": "M", "cod": "113081", "estado": "REAL"},
{"nom": "SAN PEDRO DE HUACARPANA", "cate": "CO", "lat": -13.04795, "lon": -75.64629, "ico": "M", "cod": "113061", "estado": "REAL"},
{"nom": "HUALLPOCA", "cate": "HLG", "lat": -14.63361, "lon": -74.95028, "ico": "H", "cod": "230712", "estado": "REAL"},
{"nom": "COPARA", "cate": "CO", "lat": -14.97501, "lon": -74.89082, "ico": "M", "cod": "114018", "estado": "REAL"},
{"nom": "PALPA", "cate": "CO", "lat": -14.54939, "lon": -75.18926, "ico": "M", "cod": "114021", "estado": "REAL"},
{"nom": "IMATA", "cate": "CO", "lat": -15.84266, "lon": -71.09062, "ico": "M", "cod": "115029", "estado": "REAL"},
{"nom": "SIBAYO", "cate": "CO", "lat": -15.49428, "lon": -71.46378, "ico": "M", "cod": "115024", "estado": "REAL"},
{"nom": "CHUQUIBAMBA", "cate": "CO", "lat": -15.84602, "lon": -72.65065, "ico": "M", "cod": "115020", "estado": "REAL"},
{"nom": "SALAMANCA", "cate": "CO", "lat": -15.5, "lon": -72.83333, "ico": "M", "cod": "115043", "estado": "REAL"},
{"nom": "LA PASCANA", "cate": "HLG", "lat": -16.99936, "lon": -71.63879, "ico": "H", "cod": "204905", "estado": "REAL"},
{"nom": "PAMPA BLANCA", "cate": "CP", "lat": -17.07147, "lon": -71.72454, "ico": "M", "cod": "117005", "estado": "REAL"},
{"nom": "COTAHUASI", "cate": "CO", "lat": -15.21134, "lon": -72.89325, "ico": "M", "cod": "115019", "estado": "REAL"},
{"nom": "MARCELINO SERNA (PAMPAS)", "cate": "HLG", "lat": -13.43422, "lon": -73.82756, "ico": "H", "cod": "251001", "estado": "REAL"},
{"nom": "WAYLLAPAMPA", "cate": "CO", "lat": -13.07667, "lon": -74.21694, "ico": "M", "cod": "112069", "estado": "REAL"},
{"nom": "LA QUINUA", "cate": "CO", "lat": -13.05167, "lon": -74.14222, "ico": "M", "cod": "113021", "estado": "REAL"},
{"nom": "SAN PEDRO DE CACHI", "cate": "CO", "lat": -13.08742, "lon": -74.39067, "ico": "M", "cod": "100127", "estado": "REAL"},
{"nom": "PUQUIO", "cate": "CO", "lat": -14.69928, "lon": -74.1316, "ico": "M", "cod": "114023", "estado": "REAL"},
{"nom": "HUAC-HUAS", "cate": "CO", "lat": -14.13194, "lon": -74.94056, "ico": "M", "cod": "114055", "estado": "REAL"},
{"nom": "LLAUTA", "cate": "HLG", "lat": -14.23998, "lon": -74.92135, "ico": "H", "cod": "213600", "estado": "REAL"},
{"nom": "CORACORA", "cate": "CO", "lat": -15.01194, "lon": -73.77945, "ico": "M", "cod": "115015", "estado": "REAL"},
{"nom": "PAUZA", "cate": "CO", "lat": -15.27533, "lon": -73.34113, "ico": "M", "cod": "115017", "estado": "REAL"},
{"nom": "PAUCARAY", "cate": "CO", "lat": -14.04378, "lon": -73.63882, "ico": "M", "cod": "114044", "estado": "REAL"},
{"nom": "HUANCAPI", "cate": "CO", "lat": -13.75028, "lon": -74.07056, "ico": "M", "cod": "113022", "estado": "REAL"},
{"nom": "VILCASHUAMAN", "cate": "CO", "lat": -13.64833, "lon": -73.93444, "ico": "M", "cod": "113100", "estado": "REAL"},
{"nom": "MASHCON", "cate": "HLG", "lat": -7.165, "lon": -78.47833, "ico": "H", "cod": "220213", "estado": "REAL"},
{"nom": "GRANJA PORCON", "cate": "CO", "lat": -7.03753, "lon": -78.6334, "ico": "M", "cod": "107002", "estado": "REAL"},
{"nom": "AUGUSTO WEBERBAUER", "cate": "MAP", "lat": -7.1675, "lon": -78.49309, "ico": "M", "cod": "107028", "estado": "REAL"},
{"nom": "ASUNCION", "cate": "CO", "lat": -7.32604, "lon": -78.51582, "ico": "M", "cod": "107018", "estado": "REAL"},
{"nom": "COSPAN", "cate": "CO", "lat": -7.42857, "lon": -78.54106, "ico": "M", "cod": "100037", "estado": "REAL"},
{"nom": "LA ENCAÑADA", "cate": "CO", "lat": -7.12327, "lon": -78.33314, "ico": "M", "cod": "107093", "estado": "REAL"},
{"nom": "JESUS TUNEL", "cate": "HLG", "lat": -7.22064, "lon": -78.40376, "ico": "H", "cod": "220205", "estado": "REAL"},
{"nom": "JESUS", "cate": "CO", "lat": -7.2457, "lon": -78.38841, "ico": "M", "cod": "107016", "estado": "REAL"},
{"nom": "NAMORA BOCATOMA", "cate": "HLG", "lat": -7.24262, "lon": -78.29472, "ico": "H", "cod": "220206", "estado": "REAL"},
{"nom": "MAGDALENA", "cate": "CO", "lat": -7.25346, "lon": -78.65261, "ico": "M", "cod": "107017", "estado": "REAL"},
{"nom": "NAMORA", "cate": "CO", "lat": -7.2006, "lon": -78.32782, "ico": "M", "cod": "107037", "estado": "REAL"},
{"nom": "SAN JUAN", "cate": "CO", "lat": -7.29756, "lon": -78.49106, "ico": "M", "cod": "107005", "estado": "REAL"},
{"nom": "CAJABAMBA", "cate": "CO", "lat": -7.62166, "lon": -78.05131, "ico": "M", "cod": "107008", "estado": "REAL"},
{"nom": "CACHACHI", "cate": "PE", "lat": -7.45106, "lon": -78.26855, "ico": "M", "cod": "107068", "estado": "REAL"},
{"nom": "PUENTE CRISNEJAS", "cate": "HLM", "lat": -7.46354, "lon": -78.11313, "ico": "H", "cod": "220201", "estado": "REAL"},
{"nom": "CELENDIN", "cate": "CO", "lat": -6.85292, "lon": -78.14485, "ico": "M", "cod": "106010", "estado": "REAL"},
{"nom": "BALZAS", "cate": "HLM", "lat": -6.84465, "lon": -78.03024, "ico": "H", "cod": "221303", "estado": "REAL"},
{"nom": "CHOTA", "cate": "CO", "lat": -6.54713, "lon": -78.64863, "ico": "M", "cod": "106034", "estado": "REAL"},
{"nom": "COCHABAMBA", "cate": "CO", "lat": -6.46009, "lon": -78.8886, "ico": "M", "cod": "106058", "estado": "REAL"},
{"nom": "HUAMBOS", "cate": "CP", "lat": -6.45368, "lon": -78.96315, "ico": "M", "cod": "106054", "estado": "REAL"},
{"nom": "CHOTANO LAJAS", "cate": "HLG", "lat": -6.55972, "lon": -78.74111, "ico": "H", "cod": "220611", "estado": "REAL"},
{"nom": "LLAMA", "cate": "CO", "lat": -6.51443, "lon": -79.12262, "ico": "M", "cod": "106053", "estado": "REAL"},
{"nom": "TOCMOCHE", "cate": "CO", "lat": -6.40806, "lon": -79.35583, "ico": "M", "cod": "106061", "estado": "REAL"},
{"nom": "CONTUMAZA", "cate": "CO", "lat": -7.36521, "lon": -78.82273, "ico": "M", "cod": "107052", "estado": "REAL"},
{"nom": "PUENTE CHILETE", "cate": "HLG", "lat": -7.21969, "lon": -78.83799, "ico": "H", "cod": "201207", "estado": "REAL"},
{"nom": "CHILETE", "cate": "PLU", "lat": -7.21968, "lon": -78.83799, "ico": "M", "cod": "107058", "estado": "REAL"},
{"nom": "SAN BENITO", "cate": "CO", "lat": -7.42819, "lon": -78.92673, "ico": "M", "cod": "107057", "estado": "REAL"},
{"nom": "HUARMEY", "cate": "CO", "lat": -10.06812, "lon": -78.16232, "ico": "M", "cod": "110016", "estado": "REAL"},
{"nom": "MALVAS", "cate": "CO", "lat": -9.92723, "lon": -77.65519, "ico": "M", "cod": "109038", "estado": "REAL"},
{"nom": "PISCOBAMBA II", "cate": "CO", "lat": -8.87045, "lon": -77.35072, "ico": "M", "cod": "108103", "estado": "REAL"},
{"nom": "CABANA", "cate": "CP", "lat": -8.39058, "lon": -78.00461, "ico": "M", "cod": "108064", "estado": "REAL"},
{"nom": "POMABAMBA", "cate": "CO", "lat": -8.8217, "lon": -77.45733, "ico": "M", "cod": "108017", "estado": "REAL"},
{"nom": "RECUAY", "cate": "CO", "lat": -9.72919, "lon": -77.45365, "ico": "M", "cod": "109017", "estado": "REAL"},
{"nom": "CHACHAPOYAS", "cate": "CO", "lat": -6.2083, "lon": -77.86712, "ico": "M", "cod": "106011", "estado": "REAL"},
{"nom": "ARAMANGO", "cate": "CO", "lat": -5.41994, "lon": -78.43553, "ico": "M", "cod": "105075", "estado": "REAL"},
{"nom": "JAZAN", "cate": "CO", "lat": -5.94485, "lon": -77.97569, "ico": "M", "cod": "105079", "estado": "REAL"},
{"nom": "LOS NARANJOS", "cate": "HLG", "lat": -5.75568, "lon": -78.43154, "ico": "H", "cod": "221501", "estado": "REAL"},
{"nom": "BAGUA CHICA", "cate": "CP", "lat": -5.66148, "lon": -78.53396, "ico": "M", "cod": "105068", "estado": "REAL"},
{"nom": "JAMALCA", "cate": "CO", "lat": -5.89369, "lon": -78.23725, "ico": "M", "cod": "105042", "estado": "REAL"},
{"nom": "CAJAMARQUILLA", "cate": "CO", "lat": -9.63204, "lon": -77.74136, "ico": "M", "cod": "109046", "estado": "REAL"},
{"nom": "PARIACOTO", "cate": "CO", "lat": -9.55239, "lon": -77.88761, "ico": "M", "cod": "109040", "estado": "REAL"},
{"nom": "AIJA", "cate": "CO", "lat": -9.78165, "lon": -77.60674, "ico": "M", "cod": "109016", "estado": "REAL"},
{"nom": "CHIQUIAN", "cate": "CO", "lat": -10.14763, "lon": -77.15949, "ico": "M", "cod": "110018", "estado": "REAL"},
{"nom": "CHAVIN", "cate": "CO", "lat": -9.58598, "lon": -77.17526, "ico": "M", "cod": "109019", "estado": "REAL"},
{"nom": "CHAMANA", "cate": "CO", "lat": -10.20739, "lon": -77.55872, "ico": "M", "cod": "110039", "estado": "REAL"},
{"nom": "SIHUAS", "cate": "CO", "lat": -8.56667, "lon": -77.65, "ico": "M", "cod": "108047", "estado": "REAL"},
{"nom": "YUNGAY", "cate": "CO", "lat": -9.14189, "lon": -77.74998, "ico": "M", "cod": "109018", "estado": "REAL"},
{"nom": "CURAHUASI", "cate": "CP", "lat": -13.55222, "lon": -72.73472, "ico": "M", "cod": "113029", "estado": "REAL"},
{"nom": "GRANJA SAN ANTONIO", "cate": "MAP", "lat": -13.60433, "lon": -72.85761, "ico": "M", "cod": "113225", "estado": "REAL"},
{"nom": "ANDAHUAYLAS", "cate": "CO", "lat": -13.64861, "lon": -73.36667, "ico": "M", "cod": "113025", "estado": "REAL"},
{"nom": "AYMARAES", "cate": "CO", "lat": -14.29153, "lon": -73.25064, "ico": "M", "cod": "114117", "estado": "REAL"},
{"nom": "TAMBOBAMBA", "cate": "CO", "lat": -13.94492, "lon": -72.17522, "ico": "M", "cod": "113059", "estado": "REAL"},
{"nom": "PAMPAS", "cate": "CO", "lat": -13.43672, "lon": -73.82472, "ico": "M", "cod": "113138", "estado": "REAL"},
{"nom": "CURPAHUASI", "cate": "CO", "lat": -14.06139, "lon": -72.66667, "ico": "M", "cod": "114108", "estado": "REAL"},
{"nom": "LA PAMPILLA", "cate": "MAP", "lat": -16.4138, "lon": -71.53453, "ico": "M", "cod": "116017", "estado": "REAL"},
{"nom": "CHIGUATA", "cate": "CO", "lat": -16.40645, "lon": -71.40939, "ico": "M", "cod": "116020", "estado": "REAL"},
{"nom": "HUASACACHE", "cate": "CO", "lat": -16.45774, "lon": -71.56635, "ico": "M", "cod": "116003", "estado": "REAL"},
{"nom": "PUENTE DEL DIABLO", "cate": "HLG", "lat": -16.42679, "lon": -71.67503, "ico": "H", "cod": "204707", "estado": "REAL"},
{"nom": "TINGO GRANDE", "cate": "HLG", "lat": -16.45992, "lon": -71.57431, "ico": "H", "cod": "204708", "estado": "REAL"},
{"nom": "LA JOYA", "cate": "MAP", "lat": -16.58359, "lon": -71.92464, "ico": "M", "cod": "116005", "estado": "REAL"},
{"nom": "HACIENDA PAMPATA", "cate": "HLG", "lat": -16.54193, "lon": -72.69957, "ico": "H", "cod": "204621", "estado": "REAL"},
{"nom": "OCOÑA", "cate": "HLG", "lat": -16.427, "lon": -73.1145, "ico": "H", "cod": "204504", "estado": "REAL"},
{"nom": "CAMANA", "cate": "CO", "lat": -16.64034, "lon": -72.70156, "ico": "M", "cod": "116013", "estado": "REAL"},
{"nom": "CARAVELI", "cate": "CO", "lat": -15.77568, "lon": -73.36259, "ico": "M", "cod": "115018", "estado": "REAL"},
{"nom": "PUNTA ATICO", "cate": "CO", "lat": -16.22833, "lon": -73.69417, "ico": "M", "cod": "116011", "estado": "REAL"},
{"nom": "CHAPARRA", "cate": "CO", "lat": -15.74765, "lon": -73.87089, "ico": "M", "cod": "100026", "estado": "REAL"},
{"nom": "LOMAS", "cate": "CO", "lat": -15.57119, "lon": -74.8503, "ico": "M", "cod": "115133", "estado": "REAL"},
{"nom": "HUATIAPA", "cate": "HLG", "lat": -16.00806, "lon": -72.48355, "ico": "H", "cod": "204617", "estado": "REAL"},
{"nom": "APLAO", "cate": "CO", "lat": -16.07288, "lon": -72.49226, "ico": "M", "cod": "116014", "estado": "REAL"},
{"nom": "ANDAHUA", "cate": "CO", "lat": -15.5009, "lon": -72.3551, "ico": "M", "cod": "115085", "estado": "REAL"},
{"nom": "CHOCO", "cate": "CO", "lat": -15.57497, "lon": -72.12932, "ico": "M", "cod": "115089", "estado": "REAL"},
{"nom": "MACHAHUAY", "cate": "CO", "lat": -15.64528, "lon": -72.50222, "ico": "M", "cod": "115129", "estado": "REAL"},
{"nom": "ORCOPAMPA", "cate": "CO", "lat": -15.26056, "lon": -72.33861, "ico": "M", "cod": "115086", "estado": "REAL"},
{"nom": "PAMPACOLCA", "cate": "CO", "lat": -15.71389, "lon": -72.56722, "ico": "M", "cod": "115021", "estado": "REAL"},
{"nom": "CHIVAY", "cate": "CO", "lat": -15.64163, "lon": -71.60169, "ico": "M", "cod": "115025", "estado": "REAL"},
{"nom": "CABANACONDE", "cate": "CO", "lat": -15.6226, "lon": -71.97409, "ico": "M", "cod": "115041", "estado": "REAL"},
{"nom": "CAYLLOMA", "cate": "CO", "lat": -15.18882, "lon": -71.77019, "ico": "M", "cod": "115022", "estado": "REAL"},
{"nom": "HUAMBO", "cate": "CO", "lat": -15.73201, "lon": -72.10693, "ico": "M", "cod": "115090", "estado": "REAL"},
{"nom": "HUANCA", "cate": "CO", "lat": -16.03458, "lon": -71.88108, "ico": "M", "cod": "116058", "estado": "REAL"},
{"nom": "PARAMONGA", "cate": "CP", "lat": -10.67398, "lon": -77.82178, "ico": "M", "cod": "110015", "estado": "REAL"},
{"nom": "CAJATAMBO", "cate": "CO", "lat": -10.47788, "lon": -76.98971, "ico": "M", "cod": "110019", "estado": "REAL"},
{"nom": "CANTA", "cate": "CP", "lat": -11.47121, "lon": -76.62569, "ico": "M", "cod": "111026", "estado": "REAL"},
{"nom": "OBRAJILLO", "cate": "HLG", "lat": -11.45293, "lon": -76.62217, "ico": "H", "cod": "202802", "estado": "REAL"},
{"nom": "PUENTE MAGDALENA", "cate": "HLG", "lat": -11.69463, "lon": -76.83719, "ico": "H", "cod": "111151", "estado": "REAL"},
{"nom": "LA CAPILLA", "cate": "HLG", "lat": -12.52194, "lon": -76.49637, "ico": "H", "cod": "203101", "estado": "REAL"},
{"nom": "SOCSI CAÑETE", "cate": "PE", "lat": -13.03051, "lon": -76.20027, "ico": "M", "cod": "113140", "estado": "REAL"},
{"nom": "SOCSI", "cate": "HLG", "lat": -13.0283, "lon": -76.19453, "ico": "H", "cod": "203302", "estado": "REAL"},
{"nom": "PACARAN", "cate": "CO", "lat": -12.86689, "lon": -76.05793, "ico": "M", "cod": "112058", "estado": "REAL"},
{"nom": "PACARAN", "cate": "HLM", "lat": -12.86096, "lon": -76.05479, "ico": "H", "cod": "203303", "estado": "REAL"},
{"nom": "HUAYAN", "cate": "CO", "lat": -11.45281, "lon": -77.122, "ico": "M", "cod": "111022", "estado": "REAL"},
{"nom": "SANTO DOMINGO", "cate": "HLG", "lat": -11.37009, "lon": -77.02823, "ico": "H", "cod": "202701", "estado": "REAL"},
{"nom": "PAMPA DE MAJES", "cate": "MAP", "lat": -16.33565, "lon": -72.15266, "ico": "M", "cod": "116006", "estado": "REAL"},
{"nom": "HUANCAVELICA", "cate": "CO", "lat": -12.78028, "lon": -75.03611, "ico": "M", "cod": "112061", "estado": "REAL"},
{"nom": "PUERTO ALMENDRA", "cate": "CO", "lat": -3.78653, "lon": -73.29322, "ico": "M", "cod": "103046", "estado": "REAL"},
{"nom": "MATUCANA", "cate": "CO", "lat": -11.83913, "lon": -76.37792, "ico": "M", "cod": "111027", "estado": "REAL"},
{"nom": "ANTAPUCRO", "cate": "HLG", "lat": -12.0314, "lon": -76.62437, "ico": "H", "cod": "203003", "estado": "REAL"},
{"nom": "RIO BLANCO", "cate": "HLG", "lat": -11.7345, "lon": -76.25938, "ico": "H", "cod": "202904", "estado": "REAL"},
{"nom": "HUAROCHIRI", "cate": "CO", "lat": -12.13886, "lon": -76.23429, "ico": "M", "cod": "112055", "estado": "REAL"},
{"nom": "SAN LAZARO DE ESCOMARCA", "cate": "CO", "lat": -12.18088, "lon": -76.35207, "ico": "M", "cod": "112126", "estado": "REAL"},
{"nom": "SAN MATEO DE HUANCHOR", "cate": "PLU", "lat": -11.76017, "lon": -76.301, "ico": "M", "cod": "111175", "estado": "REAL"},
{"nom": "SAN MATEO", "cate": "HLG", "lat": -11.76012, "lon": -76.30111, "ico": "H", "cod": "202905", "estado": "REAL"},
{"nom": "SANTA EULALIA", "cate": "PLU", "lat": -11.92, "lon": -76.66664, "ico": "M", "cod": "111086", "estado": "REAL"},
{"nom": "SANTA EULALIA", "cate": "HLM", "lat": -11.91984, "lon": -76.66678, "ico": "H", "cod": "202930", "estado": "REAL"},
{"nom": "UNJF SANCHEZ CARRION - HUACHO", "cate": "CP", "lat": -11.12386, "lon": -77.60603, "ico": "M", "cod": "111163", "estado": "REAL"},
{"nom": "LOMAS DE LACHAY", "cate": "CO", "lat": -11.36014, "lon": -77.36839, "ico": "M", "cod": "111018", "estado": "REAL"},
{"nom": "ALCANTARILLA", "cate": "MAP", "lat": -11.06068, "lon": -77.55011, "ico": "M", "cod": "111004", "estado": "REAL"},
{"nom": "PICOY", "cate": "CO", "lat": -10.92162, "lon": -76.73701, "ico": "M", "cod": "110021", "estado": "REAL"},
{"nom": "PICOY", "cate": "HLG", "lat": -10.92164, "lon": -76.7367, "ico": "H", "cod": "202607", "estado": "REAL"},
{"nom": "SAYAN", "cate": "HLM", "lat": -11.15, "lon": -77.2, "ico": "H", "cod": "212301", "estado": "REAL"},
{"nom": "CAMAY", "cate": "CO", "lat": -10.91294, "lon": -77.6489, "ico": "M", "cod": "110017", "estado": "REAL"},
{"nom": "YAUYOS", "cate": "CO", "lat": -12.49173, "lon": -75.91039, "ico": "M", "cod": "112057", "estado": "REAL"},
{"nom": "HUANGASCAR", "cate": "PE", "lat": -12.89858, "lon": -75.83365, "ico": "M", "cod": "112134", "estado": "REAL"},
{"nom": "PUNCHANA", "cate": "PE", "lat": -3.69003, "lon": -73.25406, "ico": "M", "cod": "103015", "estado": "REAL"},
{"nom": "TAMSHIYACU", "cate": "CO", "lat": -4.00356, "lon": -73.16112, "ico": "M", "cod": "103049", "estado": "REAL"},
{"nom": "TAMSHIYACU", "cate": "HLM", "lat": -4.00316, "lon": -73.1614, "ico": "H", "cod": "240103", "estado": "REAL"},
{"nom": "FRANCISCO ORELLANA", "cate": "PE", "lat": -3.42333, "lon": -72.76667, "ico": "M", "cod": "103024", "estado": "REAL"},
{"nom": "MAZAN", "cate": "CP", "lat": -3.48472, "lon": -73.07944, "ico": "M", "cod": "103044", "estado": "REAL"},
{"nom": "SAN RAMON", "cate": "CP", "lat": -5.93361, "lon": -76.08361, "ico": "M", "cod": "100128", "estado": "REAL"},
{"nom": "SAN LORENZO", "cate": "CO", "lat": -4.82954, "lon": -76.55477, "ico": "M", "cod": "104057", "estado": "REAL"},
{"nom": "SAN LORENZO", "cate": "HLG", "lat": -4.83122, "lon": -76.70678, "ico": "H", "cod": "220108", "estado": "REAL"},
{"nom": "LAGUNAS", "cate": "HLM", "lat": -5.21814, "lon": -75.81883, "ico": "H", "cod": "230603", "estado": "REAL"},
{"nom": "NAUTA", "cate": "CO", "lat": -4.51336, "lon": -73.58375, "ico": "M", "cod": "104056", "estado": "REAL"},
{"nom": "CABALLOCOCHA", "cate": "CO", "lat": -3.91125, "lon": -70.51206, "ico": "M", "cod": "103031", "estado": "REAL"},
{"nom": "PEBAS", "cate": "CO", "lat": -3.31453, "lon": -71.85756, "ico": "M", "cod": "103054", "estado": "REAL"},
{"nom": "PUERTO MALDONADO", "cate": "CP", "lat": -12.58361, "lon": -69.20028, "ico": "M", "cod": "100109", "estado": "REAL"},
{"nom": "IÑAPARI", "cate": "CO", "lat": -10.95589, "lon": -69.578, "ico": "M", "cod": "110129", "estado": "REAL"},
{"nom": "MOQUEGUA", "cate": "CP", "lat": -17.16917, "lon": -70.93167, "ico": "M", "cod": "117002", "estado": "REAL"},
{"nom": "CARUMAS", "cate": "CO", "lat": -16.81306, "lon": -70.69444, "ico": "M", "cod": "116025", "estado": "REAL"},
{"nom": "CALACOA", "cate": "CO", "lat": -16.735, "lon": -70.6828, "ico": "M", "cod": "116051", "estado": "REAL"},
{"nom": "PUQUINA", "cate": "CO", "lat": -16.62694, "lon": -71.16944, "ico": "M", "cod": "116021", "estado": "REAL"},
{"nom": "UBINAS", "cate": "CO", "lat": -16.37206, "lon": -70.85394, "ico": "M", "cod": "100142", "estado": "REAL"},
{"nom": "PUNTA COLES", "cate": "CO", "lat": -17.69867, "lon": -71.37361, "ico": "M", "cod": "117008", "estado": "REAL"},
{"nom": "ILO", "cate": "CO", "lat": -17.62694, "lon": -71.28806, "ico": "M", "cod": "117007", "estado": "REAL"},
{"nom": "CERRO DE PASCO", "cate": "CO", "lat": -10.69361, "lon": -76.25028, "ico": "M", "cod": "110037", "estado": "REAL"},
{"nom": "YANAHUANCA", "cate": "CO", "lat": -10.4896, "lon": -76.51285, "ico": "M", "cod": "110007", "estado": "REAL"},
{"nom": "OXAPAMPA", "cate": "CO", "lat": -10.59417, "lon": -75.38417, "ico": "M", "cod": "110028", "estado": "REAL"},
{"nom": "POZUZO", "cate": "CO", "lat": -10.05028, "lon": -75.55028, "ico": "M", "cod": "110027", "estado": "REAL"},
{"nom": "SAN MIGUEL", "cate": "MAP", "lat": -5.2462, "lon": -80.68436, "ico": "M", "cod": "105063", "estado": "REAL"},
{"nom": "PARTIDOR", "cate": "CO", "lat": -4.73197, "lon": -80.27982, "ico": "M", "cod": "104084", "estado": "REAL"},
{"nom": "AYABACA", "cate": "CP", "lat": -4.63776, "lon": -79.71077, "ico": "M", "cod": "104058", "estado": "REAL"},
{"nom": "SAUSAL DE CULUCAN", "cate": "CO", "lat": -4.75238, "lon": -79.75792, "ico": "M", "cod": "104059", "estado": "REAL"},
{"nom": "ALTO DE POCLUS", "cate": "CP", "lat": -4.9169, "lon": -79.89047, "ico": "M", "cod": "104097", "estado": "REAL"},
{"nom": "SAPILLICA", "cate": "PLU", "lat": -4.77817, "lon": -79.98178, "ico": "M", "cod": "104019", "estado": "REAL"},
{"nom": "HUANCABAMBA", "cate": "CP", "lat": -5.24681, "lon": -79.45399, "ico": "M", "cod": "105055", "estado": "REAL"},
{"nom": "SALALA", "cate": "CP", "lat": -5.11153, "lon": -79.46349, "ico": "M", "cod": "105096", "estado": "REAL"},
{"nom": "HUARMACA", "cate": "CO", "lat": -5.56599, "lon": -79.52542, "ico": "M", "cod": "105064", "estado": "REAL"},
{"nom": "SONDORILLO", "cate": "CO", "lat": -5.3398, "lon": -79.43137, "ico": "M", "cod": "105022", "estado": "REAL"},
{"nom": "CHULUCANAS", "cate": "CP", "lat": -5.10843, "lon": -80.16956, "ico": "M", "cod": "105070", "estado": "REAL"},
{"nom": "CHALACO", "cate": "CP", "lat": -5.03865, "lon": -79.79168, "ico": "M", "cod": "105016", "estado": "REAL"},
{"nom": "VIRREY", "cate": "PLU", "lat": -5.5337, "lon": -79.98233, "ico": "M", "cod": "105013", "estado": "REAL"},
{"nom": "SAN PEDRO", "cate": "PLU", "lat": -5.07954, "lon": -80.01621, "ico": "M", "cod": "100126", "estado": "REAL"},
{"nom": "SAN PEDRO", "cate": "HLG", "lat": -5.0796, "lon": -80.01624, "ico": "H", "cod": "200415", "estado": "REAL"},
{"nom": "MORROPON", "cate": "CO", "lat": -5.19465, "lon": -79.97107, "ico": "M", "cod": "105106", "estado": "REAL"},
{"nom": "MALACASI", "cate": "CP", "lat": -5.33977, "lon": -79.85794, "ico": "M", "cod": "108007", "estado": "REAL"},
{"nom": "SANTO DOMINGO", "cate": "CO", "lat": -5.03824, "lon": -79.87038, "ico": "M", "cod": "100131", "estado": "REAL"},
{"nom": "LA ESPERANZA", "cate": "CP", "lat": -4.92114, "lon": -81.05969, "ico": "M", "cod": "104090", "estado": "REAL"},
{"nom": "LANCONES", "cate": "CO", "lat": -4.64288, "lon": -80.54717, "ico": "M", "cod": "104016", "estado": "REAL"},
{"nom": "MALLARES", "cate": "CP", "lat": -4.85574, "lon": -80.73556, "ico": "M", "cod": "104079", "estado": "REAL"},
{"nom": "EL ALTO", "cate": "CO", "lat": -4.26198, "lon": -81.21815, "ico": "M", "cod": "104080", "estado": "REAL"},
{"nom": "CHUSIS", "cate": "CP", "lat": -5.52756, "lon": -80.81275, "ico": "M", "cod": "105105", "estado": "REAL"},
{"nom": "BERNAL", "cate": "CO", "lat": -5.4545, "lon": -80.74262, "ico": "M", "cod": "105012", "estado": "REAL"},
{"nom": "PUNO", "cate": "CP", "lat": -15.82625, "lon": -70.01208, "ico": "M", "cod": "100110", "estado": "REAL"},
{"nom": "LOS UROS", "cate": "CO", "lat": -15.81597, "lon": -69.93603, "ico": "M", "cod": "100088", "estado": "REAL"},
{"nom": "RINCON DE LA CRUZ", "cate": "CO", "lat": -15.99058, "lon": -69.81083, "ico": "M", "cod": "115052", "estado": "REAL"},
{"nom": "ISLA TAQUILE", "cate": "CO", "lat": -15.72047, "lon": -69.691, "ico": "M", "cod": "115049", "estado": "REAL"},
{"nom": "CAPACHICA", "cate": "CO", "lat": -15.60636, "lon": -69.83214, "ico": "M", "cod": "100021", "estado": "REAL"},
{"nom": "MAÑAZO", "cate": "CO", "lat": -15.79944, "lon": -70.33949, "ico": "M", "cod": "115051", "estado": "REAL"},
{"nom": "LARAQUERI", "cate": "CO", "lat": -16.15469, "lon": -70.06658, "ico": "M", "cod": "116033", "estado": "REAL"},
{"nom": "AZANGARO", "cate": "CO", "lat": -14.91436, "lon": -70.19075, "ico": "M", "cod": "114041", "estado": "REAL"},
{"nom": "PUENTE CARRETERA AZANGARO", "cate": "HLG", "lat": -14.91975, "lon": -70.18936, "ico": "H", "cod": "210102", "estado": "REAL"},
{"nom": "ARAPA", "cate": "CO", "lat": -15.13625, "lon": -70.11822, "ico": "M", "cod": "115035", "estado": "REAL"},
{"nom": "MUÑANI", "cate": "CO", "lat": -14.76694, "lon": -69.95181, "ico": "M", "cod": "114042", "estado": "REAL"},
{"nom": "MACUSANI", "cate": "CO", "lat": -14.07, "lon": -70.43908, "ico": "M", "cod": "114039", "estado": "REAL"},
{"nom": "CRUCERO", "cate": "CO", "lat": -14.36419, "lon": -70.02592, "ico": "M", "cod": "114058", "estado": "REAL"},
{"nom": "JULI", "cate": "CO", "lat": -16.20378, "lon": -69.45992, "ico": "M", "cod": "116061", "estado": "REAL"},
{"nom": "PUENTE DESAGUADERO", "cate": "HLG", "lat": -16.56383, "lon": -69.03733, "ico": "H", "cod": "270700", "estado": "REAL"},
{"nom": "PUENTE LOROCO CALLACAME", "cate": "HLG", "lat": -16.57225, "lon": -69.31697, "ico": "H", "cod": "210502", "estado": "REAL"},
{"nom": "PIZACOMA", "cate": "CO", "lat": -16.90703, "lon": -69.36856, "ico": "M", "cod": "116029", "estado": "REAL"},
{"nom": "PUENTE CARRETERA ILAVE", "cate": "HLG", "lat": -16.08825, "lon": -69.62592, "ico": "H", "cod": "210301", "estado": "REAL"},
{"nom": "ILAVE", "cate": "CO", "lat": -16.0675, "lon": -69.66194, "ico": "M", "cod": "116027", "estado": "REAL"},
{"nom": "PUENTE ZAPATILLA", "cate": "HLM", "lat": -16.14039, "lon": -69.57094, "ico": "H", "cod": "270503", "estado": "REAL"},
{"nom": "MAZO CRUZ", "cate": "CO", "lat": -16.739, "lon": -69.71547, "ico": "M", "cod": "116026", "estado": "REAL"},
{"nom": "PUENTE RAMIS", "cate": "HLG", "lat": -15.25544, "lon": -69.87381, "ico": "H", "cod": "210101", "estado": "REAL"},
{"nom": "HUANCANE", "cate": "CO", "lat": -15.2015, "lon": -69.75356, "ico": "M", "cod": "115037", "estado": "REAL"},
{"nom": "PUENTE HUANCANE", "cate": "HLG", "lat": -15.21647, "lon": -69.79258, "ico": "H", "cod": "210201", "estado": "REAL"},
{"nom": "LAMPA", "cate": "CO", "lat": -15.67344, "lon": -70.37211, "ico": "M", "cod": "100081", "estado": "REAL"},
{"nom": "PAMPAHUTA", "cate": "CO", "lat": -15.48353, "lon": -70.67578, "ico": "M", "cod": "115027", "estado": "REAL"},
{"nom": "PUCARA", "cate": "CO", "lat": -15.04561, "lon": -70.36664, "ico": "M", "cod": "115046", "estado": "REAL"},
{"nom": "RIO VERDE", "cate": "HLG", "lat": -15.68427, "lon": -70.60002, "ico": "H", "cod": "270300", "estado": "REAL"},
{"nom": "CRUCERO ALTO", "cate": "CO", "lat": -15.76446, "lon": -70.91242, "ico": "M", "cod": "115044", "estado": "REAL"},
{"nom": "AYAVIRI", "cate": "CO", "lat": -14.87267, "lon": -70.59289, "ico": "M", "cod": "114038", "estado": "REAL"},
{"nom": "LLALLY", "cate": "CO", "lat": -14.93653, "lon": -70.88594, "ico": "M", "cod": "114034", "estado": "REAL"},
{"nom": "HUARAYA MOHO", "cate": "CO", "lat": -15.38828, "lon": -69.48428, "ico": "M", "cod": "115038", "estado": "REAL"},
{"nom": "PUTINA", "cate": "CO", "lat": -14.91489, "lon": -69.86803, "ico": "M", "cod": "114093", "estado": "REAL"},
{"nom": "ANANEA", "cate": "CO", "lat": -14.67872, "lon": -69.53453, "ico": "M", "cod": "114050", "estado": "REAL"},
{"nom": "PUENTE COATA-UNOCOLLA", "cate": "HLG", "lat": -15.45085, "lon": -70.19133, "ico": "H", "cod": "210407", "estado": "REAL"},
{"nom": "CABANILLAS", "cate": "CO", "lat": -15.16958, "lon": -69.96989, "ico": "M", "cod": "115033", "estado": "REAL"},
{"nom": "MOYOBAMBA", "cate": "CO", "lat": -6, "lon": -76.96667, "ico": "M", "cod": "106014", "estado": "REAL"},
{"nom": "JEPELACIO", "cate": "CO", "lat": -6.11542, "lon": -76.90278, "ico": "M", "cod": "106088", "estado": "REAL"},
{"nom": "SORITOR", "cate": "CO", "lat": -6.14528, "lon": -77.09472, "ico": "M", "cod": "106083", "estado": "REAL"},
{"nom": "BELLAVISTA", "cate": "CO", "lat": -7.05028, "lon": -76.55028, "ico": "M", "cod": "107012", "estado": "REAL"},
{"nom": "SAN PABLO", "cate": "CO", "lat": -6.80944, "lon": -76.57306, "ico": "M", "cod": "106091", "estado": "REAL"},
{"nom": "ALAO", "cate": "CO", "lat": -6.51889, "lon": -76.73, "ico": "M", "cod": "106092", "estado": "REAL"},
{"nom": "SAPOSOA", "cate": "CO", "lat": -6.90028, "lon": -76.76694, "ico": "M", "cod": "106032", "estado": "REAL"},
{"nom": "LAMAS", "cate": "CO", "lat": -6.42278, "lon": -76.51722, "ico": "M", "cod": "106016", "estado": "REAL"},
{"nom": "PONGO DE CAYNARACHI", "cate": "CO", "lat": -6.33361, "lon": -76.30028, "ico": "M", "cod": "100104", "estado": "REAL"},
{"nom": "TABALOSOS", "cate": "CO", "lat": -6.41639, "lon": -76.6125, "ico": "M", "cod": "106043", "estado": "REAL"},
{"nom": "HUAYABAMBA", "cate": "HLG", "lat": -7.27056, "lon": -76.74139, "ico": "H", "cod": "230504", "estado": "REAL"},
{"nom": "PACHIZA", "cate": "CO", "lat": -7.28111, "lon": -76.7775, "ico": "M", "cod": "107010", "estado": "REAL"},
{"nom": "PICOTA", "cate": "HLG", "lat": -6.88333, "lon": -76.36667, "ico": "H", "cod": "230715", "estado": "REAL"},
{"nom": "PILLUANA", "cate": "CO", "lat": -6.77861, "lon": -76.28056, "ico": "M", "cod": "106098", "estado": "REAL"},
{"nom": "SHAMBOYACU", "cate": "PLU", "lat": -7, "lon": -76.16667, "ico": "M", "cod": "107091", "estado": "REAL"},
{"nom": "SHAMBOYACU", "cate": "HLG", "lat": -7.00028, "lon": -76.16694, "ico": "H", "cod": "221813", "estado": "REAL"},
{"nom": "TINGO DE PONAZA", "cate": "CO", "lat": -6.93361, "lon": -76.25028, "ico": "M", "cod": "106119", "estado": "REAL"},
{"nom": "RIOJA", "cate": "CO", "lat": -6.04667, "lon": -77.16694, "ico": "M", "cod": "106013", "estado": "REAL"},
{"nom": "TARAPOTO", "cate": "CO", "lat": -6.5, "lon": -76.46667, "ico": "M", "cod": "100138", "estado": "REAL"},
{"nom": "CHAZUTA", "cate": "HLM", "lat": -6.56944, "lon": -76.09861, "ico": "H", "cod": "230601", "estado": "REAL"},
{"nom": "CHAZUTA", "cate": "CO", "lat": -6.56889, "lon": -76.09833, "ico": "M", "cod": "106101", "estado": "REAL"},
{"nom": "EL PORVENIR", "cate": "MAP", "lat": -6.58361, "lon": -76.31694, "ico": "M", "cod": "106040", "estado": "REAL"},
{"nom": "SAUCE", "cate": "CO", "lat": -6.69194, "lon": -76.20028, "ico": "M", "cod": "106017", "estado": "REAL"},
{"nom": "PUENTE TOCACHE", "cate": "HLG", "lat": -8.18475, "lon": -76.50789, "ico": "H", "cod": "230700", "estado": "REAL"},
{"nom": "TANANTA", "cate": "CP", "lat": -8.11524, "lon": -76.58049, "ico": "M", "cod": "100137", "estado": "REAL"},
{"nom": "CORUCA", "cate": "HLG", "lat": -17.63312, "lon": -70.45456, "ico": "H", "cod": "214901", "estado": "REAL"},
{"nom": "JORGE BASADRE", "cate": "MAP", "lat": -18.02689, "lon": -70.25153, "ico": "M", "cod": "118004", "estado": "REAL"},
{"nom": "LA YARADA", "cate": "CP", "lat": -18.20678, "lon": -70.52411, "ico": "M", "cod": "118002", "estado": "REAL"},
{"nom": "CALANA", "cate": "CP", "lat": -17.94889, "lon": -70.18611, "ico": "M", "cod": "117003", "estado": "REAL"},
{"nom": "SAMA GRANDE", "cate": "CO", "lat": -17.78394, "lon": -70.48833, "ico": "M", "cod": "117018", "estado": "REAL"},
{"nom": "CALIENTES", "cate": "CO", "lat": -17.87889, "lon": -70.13889, "ico": "M", "cod": "117015", "estado": "REAL"},
{"nom": "BOCATOMA", "cate": "CO", "lat": -17.57986, "lon": -69.62628, "ico": "M", "cod": "100007", "estado": "REAL"},
{"nom": "CANDARAVE", "cate": "CO", "lat": -17.27111, "lon": -70.25389, "ico": "M", "cod": "117019", "estado": "REAL"},
{"nom": "ILABAYA", "cate": "CO", "lat": -17.41783, "lon": -70.51281, "ico": "M", "cod": "117016", "estado": "REAL"},
{"nom": "ITE", "cate": "CO", "lat": -17.86389, "lon": -70.96583, "ico": "M", "cod": "117012", "estado": "REAL"},
{"nom": "TARATA", "cate": "CO", "lat": -17.47417, "lon": -70.03389, "ico": "M", "cod": "117020", "estado": "REAL"},
{"nom": "PUERTO PIZARRO", "cate": "CO", "lat": -3.5038, "lon": -80.39504, "ico": "M", "cod": "103038", "estado": "REAL"},
{"nom": "LA CRUZ", "cate": "CP", "lat": -3.62829, "lon": -80.56927, "ico": "M", "cod": "100072", "estado": "REAL"},
{"nom": "EL TIGRE", "cate": "PLU", "lat": -3.80233, "lon": -80.45667, "ico": "M", "cod": "103016", "estado": "REAL"},
{"nom": "EL TIGRE", "cate": "HLG", "lat": -3.76848, "lon": -80.45685, "ico": "H", "cod": "200202", "estado": "REAL"},
{"nom": "RICA PLAYA", "cate": "CO", "lat": -3.8119, "lon": -80.50546, "ico": "M", "cod": "103036", "estado": "REAL"},
{"nom": "CAÑAVERAL", "cate": "CO", "lat": -3.9391, "lon": -80.65058, "ico": "M", "cod": "103042", "estado": "REAL"},
{"nom": "PAPAYAL", "cate": "CO", "lat": -3.56732, "lon": -80.23324, "ico": "M", "cod": "103040", "estado": "REAL"},
{"nom": "AGUAYTIA", "cate": "CO", "lat": -9.04222, "lon": -75.50639, "ico": "M", "cod": "108028", "estado": "REAL"},
{"nom": "PUENTE AGUAYTIA", "cate": "HLG", "lat": -9.03738, "lon": -75.50449, "ico": "H", "cod": "231201", "estado": "REAL"},
{"nom": "SAN ALEJANDRO", "cate": "CO", "lat": -8.83444, "lon": -75.21639, "ico": "M", "cod": "100121", "estado": "REAL"},
{"nom": "SAN ALEJANDRO", "cate": "HLM", "lat": -8.83091, "lon": -75.21281, "ico": "H", "cod": "250103", "estado": "REAL"},
{"nom": "LAS PALMERAS DE UCAYALI", "cate": "CP", "lat": -8.58249, "lon": -74.86613, "ico": "M", "cod": "108026", "estado": "REAL"},
{"nom": "RIO GRANDE", "cate": "CO", "lat": -14.52648, "lon": -75.21306, "ico": "M", "cod": "114006", "estado": "REAL"},
{"nom": "PAMPA BLANCA", "cate": "PE", "lat": -14.23731, "lon": -75.10407, "ico": "M", "cod": "114066", "estado": "REAL"},
{"nom": "LETRAYOC", "cate": "HLG", "lat": -13.64014, "lon": -75.71956, "ico": "H", "cod": "203601", "estado": "REAL"},
{"nom": "HACIENDA BERNALES", "cate": "CO", "lat": -13.74114, "lon": -75.96641, "ico": "M", "cod": "100046", "estado": "REAL"},
{"nom": "PUENTE BREÑA", "cate": "HLG", "lat": -12.04806, "lon": -75.24194, "ico": "H", "cod": "230931", "estado": "REAL"},
{"nom": "SANTA ANA", "cate": "MAP", "lat": -12.00417, "lon": -75.22083, "ico": "M", "cod": "112083", "estado": "REAL"},
{"nom": "VIQUES", "cate": "CO", "lat": -12.16306, "lon": -75.23528, "ico": "M", "cod": "112037", "estado": "REAL"},
{"nom": "RUNATULLO", "cate": "CO", "lat": -11.58361, "lon": -75.05028, "ico": "M", "cod": "100119", "estado": "REAL"},
{"nom": "COMAS", "cate": "CO", "lat": -11.74861, "lon": -75.12917, "ico": "M", "cod": "111031", "estado": "REAL"},
{"nom": "INGENIO", "cate": "CO", "lat": -11.88083, "lon": -75.28778, "ico": "M", "cod": "111097", "estado": "REAL"},
{"nom": "PICHANAKY", "cate": "CO", "lat": -10.96556, "lon": -74.8325, "ico": "M", "cod": "110008", "estado": "REAL"},
{"nom": "RIO TULUMAYO", "cate": "HLM", "lat": -11.20139, "lon": -75.34606, "ico": "H", "cod": "250501", "estado": "REAL"},
{"nom": "JAUJA", "cate": "CO", "lat": -11.78664, "lon": -75.48689, "ico": "M", "cod": "111005", "estado": "REAL"},
{"nom": "RICRAN", "cate": "CO", "lat": -11.53944, "lon": -75.52389, "ico": "M", "cod": "111095", "estado": "REAL"},
{"nom": "JUNIN", "cate": "CO", "lat": -11.14328, "lon": -75.98878, "ico": "M", "cod": "111583", "estado": "REAL"},
{"nom": "SATIPO", "cate": "CO", "lat": -11.22806, "lon": -74.6175, "ico": "M", "cod": "111038", "estado": "REAL"},
{"nom": "TARMA", "cate": "CO", "lat": -11.39694, "lon": -75.69028, "ico": "M", "cod": "111029", "estado": "REAL"},
{"nom": "HUASAHUASI", "cate": "CO", "lat": -11.26167, "lon": -75.62083, "ico": "M", "cod": "111030", "estado": "REAL"},
{"nom": "MARCAPOMACOCHA", "cate": "CO", "lat": -11.4044, "lon": -76.32487, "ico": "M", "cod": "111028", "estado": "REAL"},
{"nom": "YANTAC", "cate": "CO", "lat": -11.34583, "lon": -76.40453, "ico": "M", "cod": "111076", "estado": "REAL"},
{"nom": "LA OROYA", "cate": "CO", "lat": -11.56861, "lon": -75.95944, "ico": "M", "cod": "111046", "estado": "REAL"},
{"nom": "HUAYAO", "cate": "CP", "lat": -12.03833, "lon": -75.33806, "ico": "M", "cod": "112056", "estado": "REAL"},
{"nom": "SAN JUAN DE JARPA", "cate": "CO", "lat": -12.125, "lon": -75.43194, "ico": "M", "cod": "112028", "estado": "REAL"},
{"nom": "LAIVE", "cate": "CO", "lat": -12.25222, "lon": -75.35528, "ico": "M", "cod": "112059", "estado": "REAL"},
{"nom": "TRUJILLO", "cate": "CO", "lat": -8.11203, "lon": -78.9851, "ico": "M", "cod": "108068", "estado": "REAL"},
{"nom": "CHERREPE", "cate": "CO", "lat": -7.11887, "lon": -79.56118, "ico": "M", "cod": "100028", "estado": "REAL"},
{"nom": "CALLANCAS", "cate": "CO", "lat": -7.76747, "lon": -78.47727, "ico": "M", "cod": "107054", "estado": "REAL"},
{"nom": "SALPO", "cate": "CO", "lat": -8.00535, "lon": -78.6071, "ico": "M", "cod": "108001", "estado": "REAL"},
{"nom": "HUAMACHUCO", "cate": "CO", "lat": -7.81916, "lon": -78.04013, "ico": "M", "cod": "107009", "estado": "REAL"},
{"nom": "CACHICADAN", "cate": "CO", "lat": -8.09184, "lon": -78.14938, "ico": "M", "cod": "108045", "estado": "REAL"},
{"nom": "REQUE", "cate": "CO", "lat": -6.88613, "lon": -79.8355, "ico": "M", "cod": "106046", "estado": "REAL"},
{"nom": "OYOTUN", "cate": "CO", "lat": -6.86394, "lon": -79.32062, "ico": "M", "cod": "106109", "estado": "REAL"},
{"nom": "SIPAN", "cate": "CO", "lat": -6.80141, "lon": -79.60002, "ico": "M", "cod": "106036", "estado": "REAL"},
{"nom": "CAYALTI", "cate": "CP", "lat": -6.88079, "lon": -79.54701, "ico": "M", "cod": "106042", "estado": "REAL"},
{"nom": "LAMBAYEQUE", "cate": "CP", "lat": -6.73438, "lon": -79.90894, "ico": "M", "cod": "106108", "estado": "REAL"},
{"nom": "JAYANCA (LA VIÑA)", "cate": "CO", "lat": -6.33159, "lon": -79.76869, "ico": "M", "cod": "106047", "estado": "REAL"},
{"nom": "PASABAR", "cate": "CP", "lat": -5.83722, "lon": -79.81908, "ico": "M", "cod": "105076", "estado": "REAL"},
{"nom": "CAMPO DE MARTE", "cate": "CP", "lat": -12.07053, "lon": -77.04317, "ico": "M", "cod": "112171", "estado": "REAL"},
{"nom": "CHOSICA", "cate": "PLU", "lat": -11.92986, "lon": -76.68975, "ico": "M", "cod": "111060", "estado": "REAL"},
{"nom": "CHOSICA", "cate": "HLG", "lat": -11.92983, "lon": -76.68973, "ico": "H", "cod": "202906", "estado": "REAL"},
{"nom": "ÑAÑA", "cate": "CO", "lat": -11.98744, "lon": -76.84194, "ico": "M", "cod": "111023", "estado": "REAL"},
{"nom": "PUENTE HUACHIPA", "cate": "HLM", "lat": -12.01281, "lon": -76.89441, "ico": "H", "cod": "202910", "estado": "REAL"},
{"nom": "YONAN GORE", "cate": "EHA", "lat": -7.25592, "lon": -79.09909, "ico": "H", "cod": "4726E508", "estado": "AUTOMATICA"},
{"nom": "CUTERVO GORE", "cate": "EMA", "lat": -6.37914, "lon": -78.81339, "ico": "M", "cod": "4726A602", "estado": "AUTOMATICA"},
{"nom": "TUNEL CHOTANO", "cate": "EHMA", "lat": -6.54049, "lon": -78.78432, "ico": "H", "cod": "47E1F02E", "estado": "AUTOMATICA"},
{"nom": "CUMBA", "cate": "EHA", "lat": -5.94135, "lon": -78.66413, "ico": "H", "cod": "472B3006", "estado": "AUTOMATICA"},
{"nom": "BAMBAMARCA GORE", "cate": "EMA", "lat": -6.67996, "lon": -78.52363, "ico": "M", "cod": "472680EE", "estado": "AUTOMATICA"},
{"nom": "BAMBAMARCA H GORE", "cate": "EHA", "lat": -6.66975, "lon": -78.54119, "ico": "H", "cod": "4726D092", "estado": "AUTOMATICA"},
{"nom": "CHUGUR", "cate": "EMA", "lat": -6.66667, "lon": -78.73333, "ico": "M", "cod": "4727F484", "estado": "AUTOMATICA"},
{"nom": "JAEN GORE", "cate": "EAMA", "lat": -5.67667, "lon": -78.77418, "ico": "M", "cod": "47269398", "estado": "AUTOMATICA"},
{"nom": "HUALLAPE", "cate": "EHA", "lat": -5.45077, "lon": -78.69759, "ico": "H", "cod": "472A571A", "estado": "AUTOMATICA"},
{"nom": "SAN IGNACIO GORE", "cate": "EMA", "lat": -5.14422, "lon": -78.99989, "ico": "M", "cod": "4726706A", "estado": "AUTOMATICA"},
{"nom": "SAN MARCOS", "cate": "EMA", "lat": -7.32254, "lon": -78.17275, "ico": "M", "cod": "4725E206", "estado": "AUTOMATICA"},
{"nom": "TONGOD", "cate": "EHMA", "lat": -6.74456, "lon": -78.81392, "ico": "H", "cod": "47E207A4", "estado": "AUTOMATICA"},
{"nom": "CIRATO CAÑAD", "cate": "EHMA", "lat": -6.65579, "lon": -79.07395, "ico": "H", "cod": "47E1C5B4", "estado": "AUTOMATICA"},
{"nom": "CIRATO", "cate": "EHMA", "lat": -6.65583, "lon": -79.07384, "ico": "H", "cod": "4724D566", "estado": "AUTOMATICA"},
{"nom": "PUENTE AMBAN", "cate": "EHMA", "lat": -6.58271, "lon": -78.91262, "ico": "H", "cod": "47E1E358", "estado": "AUTOMATICA"},
{"nom": "CHANCAY BAÑOS", "cate": "EMA", "lat": -6.57489, "lon": -78.86721, "ico": "M", "cod": "47E3055E", "estado": "AUTOMATICA"},
{"nom": "SORAYPAMPA", "cate": "EMA", "lat": -13.39471, "lon": -72.57419, "ico": "M", "cod": "47294362", "estado": "AUTOMATICA"},
{"nom": "CALCA", "cate": "EMA", "lat": -13.33333, "lon": -72.95524, "ico": "M", "cod": "472976F8", "estado": "AUTOMATICA"},
{"nom": "NUEVO PISAC", "cate": "EHMA", "lat": -13.4275, "lon": -71.84111, "ico": "M", "cod": "472A6280", "estado": "AUTOMATICA"},
{"nom": "SAUSAYA", "cate": "EAMA", "lat": -14.52461, "lon": -71.34289, "ico": "M", "cod": "114125", "estado": "AUTOMATICA"},
{"nom": "PAYAPUNKU", "cate": "EAMA", "lat": -14.40061, "lon": -71.28969, "ico": "M", "cod": "114126", "estado": "AUTOMATICA"},
{"nom": "SICUANI", "cate": "EMA", "lat": -14.23736, "lon": -71.23669, "ico": "M", "cod": "4726158C", "estado": "AUTOMATICA"},
{"nom": "SALCCA", "cate": "EHA", "lat": -14.16711, "lon": -71.23403, "ico": "H", "cod": "114118", "estado": "AUTOMATICA"},
{"nom": "SIBINACOCHA", "cate": "EMA", "lat": -13.92214, "lon": -71.01823, "ico": "M", "cod": "47E8B578", "estado": "AUTOMATICA"},
{"nom": "QUISOQUIPINA", "cate": "EMA", "lat": -13.785, "lon": -72.88333, "ico": "M", "cod": "472E025C", "estado": "AUTOMATICA"},
{"nom": "MARCA CUNKA", "cate": "EMA", "lat": -14.52328, "lon": -72.06289, "ico": "M", "cod": "114123", "estado": "AUTOMATICA"},
{"nom": "SANTO TOMAS", "cate": "EMA", "lat": -14.45, "lon": -72.1, "ico": "M", "cod": "4729A090", "estado": "AUTOMATICA"},
{"nom": "HUAYHUAHUASI", "cate": "EAMA", "lat": -14.65517, "lon": -71.52614, "ico": "M", "cod": "114124", "estado": "AUTOMATICA"},
{"nom": "QUILLABAMBA", "cate": "EAMA", "lat": -12.85644, "lon": -72.69172, "ico": "M", "cod": "4729B3E6", "estado": "AUTOMATICA"},
{"nom": "PONGO DE MAINIQUE GORE", "cate": "EMA", "lat": -12.24986, "lon": -72.82447, "ico": "M", "cod": "112264", "estado": "AUTOMATICA"},
{"nom": "SAN PABLO", "cate": "EMA", "lat": -13.02506, "lon": -72.61992, "ico": "M", "cod": "4729658E", "estado": "AUTOMATICA"},
{"nom": "PICHARI", "cate": "EMA", "lat": -12.52219, "lon": -73.83952, "ico": "M", "cod": "47E880E2", "estado": "AUTOMATICA"},
{"nom": "PAUCARTAMBO", "cate": "EHA", "lat": -13.3177, "lon": -71.59741, "ico": "H", "cod": "210007", "estado": "AUTOMATICA"},
{"nom": "ACJANACO GORE", "cate": "EMA", "lat": -13.19672, "lon": -71.61941, "ico": "M", "cod": "4722A338", "estado": "AUTOMATICA"},
{"nom": "ASHANAKU", "cate": "EAMA", "lat": -13.59189, "lon": -71.571, "ico": "M", "cod": "113247", "estado": "AUTOMATICA"},
{"nom": "MARCAPATA GORE", "cate": "EMA", "lat": -13.50411, "lon": -70.89653, "ico": "M", "cod": "4722B04E", "estado": "AUTOMATICA"},
{"nom": "CHILCA", "cate": "EHA", "lat": -13.2235, "lon": -72.34056, "ico": "H", "cod": "472A9204", "estado": "AUTOMATICA"},
{"nom": "QORIHUAYRACHINA", "cate": "EMA", "lat": -13.22419, "lon": -72.43383, "ico": "M", "cod": "4729867C", "estado": "AUTOMATICA"},
{"nom": "MACHUPICCHU", "cate": "EMA", "lat": -13.16655, "lon": -72.54585, "ico": "M", "cod": "472897F0", "estado": "AUTOMATICA"},
{"nom": "INTIHUATANA M", "cate": "EMA", "lat": -13.22431, "lon": -72.5605, "ico": "M", "cod": "472852EE", "estado": "AUTOMATICA"},
{"nom": "HUAYLLABAMBA", "cate": "EMA", "lat": -13.26581, "lon": -72.44881, "ico": "M", "cod": "4727C11E", "estado": "AUTOMATICA"},
{"nom": "PACAYMAYO", "cate": "EMA", "lat": -13.23425, "lon": -72.49847, "ico": "M", "cod": "4729950A", "estado": "AUTOMATICA"},
{"nom": "COCHAMARCA", "cate": "EAMA", "lat": -12.99, "lon": -75.51019, "ico": "M", "cod": "4720CDF8", "estado": "AUTOMATICA"},
{"nom": "OXAPATA", "cate": "EAMA", "lat": -12.6132, "lon": -74.4819, "ico": "M", "cod": "112268", "estado": "AUTOMATICA"},
{"nom": "CHALLACA GORE", "cate": "EHMA", "lat": -13.78826, "lon": -75.40066, "ico": "H", "cod": "47284198", "estado": "AUTOMATICA"},
{"nom": "CORDOVA GORE", "cate": "EMA", "lat": -14.03333, "lon": -75.16667, "ico": "M", "cod": "4728F216", "estado": "AUTOMATICA"},
{"nom": "CHALLACA", "cate": "EMA", "lat": -13.79194, "lon": -75.39056, "ico": "M", "cod": "472811E4", "estado": "AUTOMATICA"},
{"nom": "COCHABAMBA GRANDE", "cate": "EAMA", "lat": -12.2179, "lon": -74.5103, "ico": "M", "cod": "112269", "estado": "AUTOMATICA"},
{"nom": "CHINCHAVITO", "cate": "EHA", "lat": -9.515, "lon": -75.9425, "ico": "H", "cod": "472D0552", "estado": "AUTOMATICA"},
{"nom": "TARUCA", "cate": "EHA", "lat": -9.84694, "lon": -76.15111, "ico": "H", "cod": "472B730C", "estado": "AUTOMATICA"},
{"nom": "SAN MARTIN", "cate": "EMA", "lat": -9.40385, "lon": -76.76482, "ico": "M", "cod": "4720EB14", "estado": "AUTOMATICA"},
{"nom": "CACHICOTO", "cate": "EMA", "lat": -9.18361, "lon": -76.35028, "ico": "M", "cod": "47E845FC", "estado": "AUTOMATICA"},
{"nom": "PUENTE BELLA", "cate": "EHA", "lat": -9.32, "lon": -76.02778, "ico": "H", "cod": "472DA5AA", "estado": "AUTOMATICA"},
{"nom": "TINGO MARIA", "cate": "EHMA", "lat": -9.29601, "lon": -76.00207, "ico": "H", "cod": "47270400", "estado": "AUTOMATICA"},
{"nom": "PUENTE PEREZ", "cate": "EHA", "lat": -9.34694, "lon": -75.9825, "ico": "H", "cod": "472D1624", "estado": "AUTOMATICA"},
{"nom": "PUERTO INCA", "cate": "EMA", "lat": -9.38139, "lon": -74.96083, "ico": "M", "cod": "4727A4F8", "estado": "AUTOMATICA"},
{"nom": "JESUS DE LAURICOCHA", "cate": "EMA", "lat": -10.07819, "lon": -76.63119, "ico": "M", "cod": "110140", "estado": "AUTOMATICA"},
{"nom": "PUCA PUCA", "cate": "EAMA", "lat": -9.87895, "lon": -76.5909, "ico": "M", "cod": "109094", "estado": "AUTOMATICA"},
{"nom": "ZONA INDUSTRIAL", "cate": "EMA", "lat": -14.03552, "lon": -75.75102, "ico": "M", "cod": "114129", "estado": "AUTOMATICA"},
{"nom": "OCUCAJE", "cate": "EMA", "lat": -14.37839, "lon": -75.68206, "ico": "M", "cod": "47255188", "estado": "AUTOMATICA"},
{"nom": "BETA SANTIAGO", "cate": "EMA", "lat": -14.23739, "lon": -75.67022, "ico": "M", "cod": "472A446C", "estado": "AUTOMATICA"},
{"nom": "IMATA", "cate": "EMA", "lat": -15.84266, "lon": -71.09062, "ico": "M", "cod": "47E3834A", "estado": "AUTOMATICA"},
{"nom": "PILLONES", "cate": "EMA", "lat": -15.97861, "lon": -71.21333, "ico": "M", "cod": "47E373CE", "estado": "AUTOMATICA"},
{"nom": "SUMBAY", "cate": "EHA", "lat": -15.81667, "lon": -71.11667, "ico": "H", "cod": "472ED434", "estado": "AUTOMATICA"},
{"nom": "SIBAYO", "cate": "EHA", "lat": -15.49422, "lon": -71.4638, "ico": "H", "cod": "47265686", "estado": "AUTOMATICA"},
{"nom": "COTACOTA", "cate": "EMA", "lat": -15.21331, "lon": -71.38955, "ico": "M", "cod": "47E8A60E", "estado": "AUTOMATICA"},
{"nom": "VISCA VISCA", "cate": "EAA", "lat": -14.7228, "lon": -71.9787, "ico": "M", "cod": "114119", "estado": "AUTOMATICA"},
{"nom": "COROPUNA", "cate": "EMA", "lat": -15.53597, "lon": -72.61056, "ico": "M", "cod": "115150", "estado": "AUTOMATICA"},
{"nom": "COTAHUASI", "cate": "EMA", "lat": -15.21134, "lon": -72.89331, "ico": "M", "cod": "47280292", "estado": "AUTOMATICA"},
{"nom": "PAMPA CANGALLO", "cate": "EMA", "lat": -13.56184, "lon": -74.19889, "ico": "M", "cod": "4729D600", "estado": "AUTOMATICA"},
{"nom": "SANTA CRUZ DE HOSPICIO", "cate": "EAMA", "lat": -13.4383, "lon": -74.7993, "ico": "M", "cod": "113248", "estado": "AUTOMATICA"},
{"nom": "CCONTACC", "cate": "EMA", "lat": -14.5423, "lon": -74.2642, "ico": "M", "cod": "114122", "estado": "AUTOMATICA"},
{"nom": "PAMPA GALERAS", "cate": "EMA", "lat": -14.66917, "lon": -74.40361, "ico": "M", "cod": "114127", "estado": "AUTOMATICA"},
{"nom": "HURAY HUMA", "cate": "EAA", "lat": -14.564, "lon": -73.5558, "ico": "M", "cod": "114121", "estado": "AUTOMATICA"},
{"nom": "CORA CORA", "cate": "EMA", "lat": -15.01139, "lon": -73.77917, "ico": "M", "cod": "47262016", "estado": "AUTOMATICA"},
{"nom": "PAUCARAY", "cate": "EMA", "lat": -14.04361, "lon": -73.63833, "ico": "M", "cod": "4725B27A", "estado": "AUTOMATICA"},
{"nom": "CAJAMARCA", "cate": "EMA", "lat": -7.16135, "lon": -78.50799, "ico": "M", "cod": "107137", "estado": "AUTOMATICA"},
{"nom": "RIO GRANDE GORE", "cate": "EHA", "lat": -7.09094, "lon": -78.52073, "ico": "H", "cod": "472210B6", "estado": "AUTOMATICA"},
{"nom": "CAJABAMBA GORE", "cate": "EMA", "lat": -7.62167, "lon": -78.05111, "ico": "M", "cod": "4729F0EC", "estado": "AUTOMATICA"},
{"nom": "CRISNEJAS", "cate": "EHA", "lat": -7.46335, "lon": -78.11317, "ico": "H", "cod": "472A32FC", "estado": "AUTOMATICA"},
{"nom": "CELENDIN GORE", "cate": "EMA", "lat": -6.85303, "lon": -78.14487, "ico": "M", "cod": "4726631C", "estado": "AUTOMATICA"},
{"nom": "BALSAS", "cate": "EHMA", "lat": -6.84461, "lon": -78.03025, "ico": "H", "cod": "472501F4", "estado": "AUTOMATICA"},
{"nom": "CHOTA GORE", "cate": "EMA", "lat": -6.55405, "lon": -78.67588, "ico": "M", "cod": "4726C3E4", "estado": "AUTOMATICA"},
{"nom": "HUAMBOS", "cate": "EMA", "lat": -6.45364, "lon": -78.96319, "ico": "M", "cod": "47E94706", "estado": "AUTOMATICA"},
{"nom": "PUENTE SAN CARLOS", "cate": "EHMA", "lat": -6.61515, "lon": -79.27136, "ico": "H", "cod": "47E1D6C2", "estado": "AUTOMATICA"},
{"nom": "LA MUCHAL", "cate": "EMA", "lat": -6.47906, "lon": -79.22389, "ico": "M", "cod": "47E35522", "estado": "AUTOMATICA"},
{"nom": "CASCABAMBA", "cate": "EMA", "lat": -7.38407, "lon": -78.72682, "ico": "M", "cod": "472C92CA", "estado": "AUTOMATICA"},
{"nom": "PUENTE CHILETE", "cate": "EHMA", "lat": -7.21976, "lon": -78.83801, "ico": "M", "cod": "4727470A", "estado": "AUTOMATICA"},
{"nom": "GUZMANGO", "cate": "EMA", "lat": -7.38133, "lon": -78.9033, "ico": "M", "cod": "472C81BC", "estado": "AUTOMATICA"},
{"nom": "SAUCEPAMPA", "cate": "EAA", "lat": -9.04586, "lon": -77.75173, "ico": "M", "cod": "109091", "estado": "AUTOMATICA"},
{"nom": "YANAPAMPA PSI", "cate": "EHA", "lat": -10.60597, "lon": -77.34388, "ico": "H", "cod": "472182DA", "estado": "AUTOMATICA"},
{"nom": "RECUAY", "cate": "EMA", "lat": -9.72919, "lon": -77.45365, "ico": "M", "cod": "47259496", "estado": "AUTOMATICA"},
{"nom": "PACHACOTO", "cate": "EMA", "lat": -9.85243, "lon": -77.40607, "ico": "M", "cod": "47E89394", "estado": "AUTOMATICA"},
{"nom": "SHAQUEK", "cate": "EMA", "lat": -10.07116, "lon": -77.52504, "ico": "M", "cod": "110138", "estado": "AUTOMATICA"},
{"nom": "PUENTE SALINAS AMOJAO", "cate": "EHA", "lat": -5.45096, "lon": -78.4894, "ico": "H", "cod": "472B55E0", "estado": "AUTOMATICA"},
{"nom": "BAGUA", "cate": "EAMA", "lat": -5.66142, "lon": -78.53397, "ico": "M", "cod": "472C57D4", "estado": "AUTOMATICA"},
{"nom": "CORRAL QUEMADO", "cate": "EHA", "lat": -5.75461, "lon": -78.69208, "ico": "H", "cod": "472B607A", "estado": "AUTOMATICA"},
{"nom": "MAGUNCHAL", "cate": "EHA", "lat": -5.88667, "lon": -78.18667, "ico": "H", "cod": "472B2370", "estado": "AUTOMATICA"},
{"nom": "NARANJITO", "cate": "EHA", "lat": -5.81968, "lon": -78.27598, "ico": "H", "cod": "220907", "estado": "AUTOMATICA"},
{"nom": "BUENA VISTA", "cate": "EMA", "lat": -9.43372, "lon": -78.20828, "ico": "M", "cod": "109096", "estado": "AUTOMATICA"},
{"nom": "CHAVIN", "cate": "EMA", "lat": -9.58598, "lon": -77.17529, "ico": "M", "cod": "4725A10C", "estado": "AUTOMATICA"},
{"nom": "CONDORCERRO PSI", "cate": "EHA", "lat": -8.65793, "lon": -78.26172, "ico": "H", "cod": "211408", "estado": "AUTOMATICA"},
{"nom": "PUENTE CUNYA", "cate": "EHA", "lat": -13.56213, "lon": -72.57525, "ico": "H", "cod": "472C44A2", "estado": "AUTOMATICA"},
{"nom": "ABANCAY (G. SAN ANTONIO)", "cate": "EMA", "lat": -13.60492, "lon": -72.85694, "ico": "M", "cod": "47263360", "estado": "AUTOMATICA"},
{"nom": "PUENTE PAMPAS", "cate": "EHA", "lat": -13.43493, "lon": -73.82737, "ico": "H", "cod": "250900", "estado": "AUTOMATICA"},
{"nom": "TANCAYLLO", "cate": "EAMA", "lat": -13.63369, "lon": -73.68839, "ico": "M", "cod": "113246", "estado": "AUTOMATICA"},
{"nom": "CHARCANI PSI", "cate": "EHA", "lat": -16.31086, "lon": -71.49511, "ico": "H", "cod": "472147C4", "estado": "AUTOMATICA"},
{"nom": "TINGO GRANDE", "cate": "EHA", "lat": -16.45992, "lon": -71.57431, "ico": "H", "cod": "472EE1AE", "estado": "AUTOMATICA"},
{"nom": "SAN JOSE DE UZUNA", "cate": "EMA", "lat": -16.58103, "lon": -71.32836, "ico": "M", "cod": "47E3B6D0", "estado": "AUTOMATICA"},
{"nom": "PUENTE DEL DIABLO PSI", "cate": "EHA", "lat": -16.42665, "lon": -71.67507, "ico": "H", "cod": "4722E032", "estado": "AUTOMATICA"},
{"nom": "BOLLADERO", "cate": "EHA", "lat": -16.58989, "lon": -72.00886, "ico": "H", "cod": "47E26242", "estado": "AUTOMATICA"},
{"nom": "PATAHUASI", "cate": "EMA", "lat": -16.05542, "lon": -71.41481, "ico": "M", "cod": "47E360B8", "estado": "AUTOMATICA"},
{"nom": "SOCOSANI", "cate": "EHA", "lat": -16.25944, "lon": -71.72056, "ico": "H", "cod": "47E27134", "estado": "AUTOMATICA"},